[
  {
    "id": "3f229d33-be23-444b-ac95-c614149e3d35",
    "deadhead": "279.53",
    "trailerStatus": "Provided",
    "driverType": "Team",
    "totalDuration": 79500000,
    "firstPickupTime": "2022-06-13T14:27:00Z",
    "lastDeliveryTime": "2022-06-14T12:32:00Z",
    "equipmentType": "40' HC Container",
    "loadType": "PRELOADED",
    "unloadingType": null,
    "stops": 2,
    "workType": "Round-trips",
    "origin": {
      "label": "GYR2",
      "stopCode": "GYR2",
      "line1": "17341 W Minnezona Ave",
      "line2": null,
      "line3": null,
      "city": "GOODYEAR",
      "state": "Arizona",
      "country": "US",
      "postalCode": "85395-9223",
      "latitude": 33.4960081,
      "longitude": -112.432077,
      "timeZone": "America/Phoenix",
      "vendorCodes": null
    },
    "destination": {
      "label": "AUS2",
      "stopCode": "AUS2",
      "line1": "2000 E. Pecan St",
      "line2": null,
      "line3": null,
      "city": "PFLUGERVILLE",
      "state": "Texas",
      "country": "US",
      "postalCode": "78660-8916",
      "latitude": 30.4315474,
      "longitude": -97.5991648,
      "timeZone": "America/Chicago",
      "vendorCodes": null
    },
    "totalDistance": { "value": 1050.2689409813486, "unit": "miles" },
    "payout": { "value": 2595.107335776384, "unit": "USD" },
    "radius": 21
  },
  {
    "id": "6e660e22-e563-4a4e-944c-1b94bd2bdcb8",
    "deadhead": null,
    "trailerStatus": "Provided",
    "driverType": "Solo",
    "totalDuration": 107520000,
    "firstPickupTime": "2022-06-13T14:28:00Z",
    "lastDeliveryTime": "2022-06-14T20:20:00Z",
    "equipmentType": "26' Truck",
    "loadType": "LIVE",
    "unloadingType": null,
    "stops": 2,
    "workType": "Block",
    "origin": {
      "label": "LAS1",
      "stopCode": "LAS1",
      "line1": "12300 Bermuda Road",
      "line2": null,
      "line3": null,
      "city": "HENDERSON",
      "state": "Nevada",
      "country": "US",
      "postalCode": "89044",
      "latitude": 35.966571,
      "longitude": -115.152358,
      "timeZone": "America/Los_Angeles",
      "vendorCodes": null
    },
    "destination": {
      "label": "DSM5",
      "stopCode": "DSM5",
      "line1": "500 32nd Street SW",
      "line2": null,
      "line3": null,
      "city": "BONDURANT",
      "state": "Iowa",
      "country": "US",
      "postalCode": "50035",
      "latitude": 41.6749881,
      "longitude": -93.4696456,
      "timeZone": "America/Chicago",
      "vendorCodes": null
    },
    "totalDistance": { "value": 1453.6892572280226, "unit": "miles" },
    "payout": { "value": 4018.548985596456, "unit": "USD" },
    "radius": 17
  },
  {
    "id": "4ad83d7f-bc1f-43e8-bd83-e119df6a8f69",
    "deadhead": "3.17",
    "trailerStatus": "Provided",
    "driverType": "Solo",
    "totalDuration": 335520000,
    "firstPickupTime": "2022-06-13T14:30:00Z",
    "lastDeliveryTime": "2022-06-17T11:42:00Z",
    "equipmentType": "26' Truck",
    "loadType": null,
    "unloadingType": "DROP",
    "stops": 2,
    "workType": "Round-trips",
    "origin": {
      "label": "HCM9",
      "stopCode": "HCM9",
      "line1": "3538 TRADEPORT CT",
      "line2": null,
      "line3": null,
      "city": "LOCKBOURNE",
      "state": "Ohio",
      "country": "US",
      "postalCode": "43137-9670",
      "latitude": 39.782185,
      "longitude": -82.943993,
      "timeZone": "America/New_York",
      "vendorCodes": null
    },
    "destination": {
      "label": "ONT2",
      "stopCode": "ONT2",
      "line1": "1910 E CENTRAL AVE",
      "line2": null,
      "line3": null,
      "city": "SAN BERNARDINO",
      "state": "CALIFORNIA",
      "country": "US",
      "postalCode": "92408-0123",
      "latitude": 34.088428,
      "longitude": -117.246073,
      "timeZone": "America/Los_Angeles",
      "vendorCodes": null
    },
    "totalDistance": { "value": 2265.974254679454, "unit": "miles" },
    "payout": { "value": 3961.134205916002, "unit": "USD" },
    "radius": 26
  },
  {
    "id": "c0227f1a-822f-4b66-8693-aba7f175f01e",
    "deadhead": null,
    "trailerStatus": "Required",
    "driverType": "Team",
    "totalDuration": 89988000,
    "firstPickupTime": "2022-06-13T14:30:00Z",
    "lastDeliveryTime": "2022-06-14T15:29:48Z",
    "equipmentType": "40' HC Container",
    "loadType": null,
    "unloadingType": "DROP",
    "stops": 2,
    "workType": "Block",
    "origin": {
      "label": "LAS1",
      "stopCode": "LAS1",
      "line1": "12300 Bermuda Road",
      "line2": null,
      "line3": null,
      "city": "HENDERSON",
      "state": "Nevada",
      "country": "US",
      "postalCode": "89044",
      "latitude": 35.966571,
      "longitude": -115.152358,
      "timeZone": "America/Los_Angeles",
      "vendorCodes": null
    },
    "destination": {
      "label": "TUL2",
      "stopCode": "TUL2",
      "line1": "4040 North 125th East Avenue",
      "line2": null,
      "line3": null,
      "city": "TULSA",
      "state": "Oklahoma",
      "country": "US",
      "postalCode": "74116-2102",
      "latitude": 36.2143113,
      "longitude": -95.8411539,
      "timeZone": "America/Chicago",
      "vendorCodes": null
    },
    "totalDistance": { "value": 1234.7360105946118, "unit": "miles" },
    "payout": { "value": 3199.957555094067, "unit": "USD" },
    "radius": 11
  },
  {
    "id": "f999f13b-6dff-45ca-87b2-65f13cb10441",
    "deadhead": null,
    "trailerStatus": "Required",
    "driverType": "Solo",
    "totalDuration": 23400000,
    "firstPickupTime": "2022-06-13T14:30:00Z",
    "lastDeliveryTime": "2022-06-13T21:00:00Z",
    "equipmentType": "53' Reefer",
    "loadType": null,
    "unloadingType": "DROP",
    "stops": 2,
    "workType": "Block",
    "origin": {
      "label": "DAX7",
      "stopCode": "DAX7",
      "line1": "9350 Rayo Ave",
      "line2": null,
      "line3": null,
      "city": "SOUTH GATE",
      "state": "California",
      "country": "US",
      "postalCode": "90280",
      "latitude": 33.9444127,
      "longitude": -118.1920355,
      "timeZone": "America/Los_Angeles",
      "vendorCodes": null
    },
    "destination": {
      "label": "DPS1",
      "stopCode": "DPS1",
      "line1": "4187 Temple City Blvd Suite D",
      "line2": null,
      "line3": null,
      "city": "ROSEMEAD",
      "state": "CALIFORNIA",
      "country": "US",
      "postalCode": "91770",
      "latitude": 34.0854153,
      "longitude": -118.0609704,
      "timeZone": "America/Los_Angeles",
      "vendorCodes": null
    },
    "totalDistance": { "value": 48.21778313220282, "unit": "miles" },
    "payout": { "value": 395.199157936508, "unit": "USD" },
    "radius": 14
  },
  {
    "id": "37625cb9-407e-4eed-a27e-b04e0fc25459",
    "deadhead": "4.16",
    "trailerStatus": "Required",
    "driverType": "Team",
    "totalDuration": 65040000,
    "firstPickupTime": "2022-06-13T14:30:00Z",
    "lastDeliveryTime": "2022-06-14T08:34:00Z",
    "equipmentType": "26' Reefer",
    "loadType": "PRELOADED",
    "unloadingType": null,
    "stops": 2,
    "workType": "Round-trips",
    "origin": {
      "label": "ABQ1",
      "stopCode": "ABQ1",
      "line1": "12945 Ladera Dr NW",
      "line2": null,
      "line3": null,
      "city": "ALBUQUERQUE",
      "state": "New Mexico",
      "country": "US",
      "postalCode": "87120",
      "latitude": 35.0818726,
      "longitude": -106.803516,
      "timeZone": "America/Denver",
      "vendorCodes": null
    },
    "destination": {
      "label": "HOU2",
      "stopCode": "HOU2",
      "line1": "10550 Ella Boulevard",
      "line2": null,
      "line3": null,
      "city": "HOUSTON",
      "state": "TEXAS",
      "country": "US",
      "postalCode": "77038",
      "latitude": 29.934294,
      "longitude": -95.428615,
      "timeZone": "America/Chicago",
      "vendorCodes": null
    },
    "totalDistance": { "value": 884.4672035964265, "unit": "miles" },
    "payout": { "value": 1670.705243605391, "unit": "USD" },
    "radius": 44
  },
  {
    "id": "56b942a2-4a73-4b6c-a099-5627c1ce5463",
    "deadhead": null,
    "trailerStatus": "Provided",
    "driverType": "Solo",
    "totalDuration": 21660000,
    "firstPickupTime": "2022-06-13T14:30:00Z",
    "lastDeliveryTime": "2022-06-13T20:31:00Z",
    "equipmentType": "26' Truck",
    "loadType": "LIVE",
    "unloadingType": null,
    "stops": 2,
    "workType": "One-way",
    "origin": {
      "label": "LAS2",
      "stopCode": "LAS2",
      "line1": "3837 Bay Lake trail suite 111",
      "line2": null,
      "line3": null,
      "city": "NORTH LAS VEGAS",
      "state": "NV",
      "country": "US",
      "postalCode": "89030",
      "latitude": 36.229299,
      "longitude": -115.105309,
      "timeZone": "America/Los_Angeles",
      "vendorCodes": null
    },
    "destination": {
      "label": "AMA1",
      "stopCode": "AMA1",
      "line1": "8590 NE 24th Ave",
      "line2": null,
      "line3": null,
      "city": "AMARILLO",
      "state": "TX",
      "country": "US",
      "postalCode": "79108",
      "latitude": 35.236712,
      "longitude": -101.7297703,
      "timeZone": "America/Chicago",
      "vendorCodes": null
    },
    "totalDistance": { "value": 864.815126026311, "unit": "miles" },
    "payout": { "value": 2303.114860428681, "unit": "USD" },
    "radius": 79
  },
  {
    "id": "d6465cf5-483d-47f7-8589-08a4bb85964a",
    "deadhead": "129.30",
    "trailerStatus": "Provided",
    "driverType": "Team",
    "totalDuration": 127860000,
    "firstPickupTime": "2022-06-13T14:30:00Z",
    "lastDeliveryTime": "2022-06-15T02:01:00Z",
    "equipmentType": "28' Trailer",
    "loadType": null,
    "unloadingType": "LIVE",
    "stops": 2,
    "workType": "Round-trips",
    "origin": {
      "label": "LAS2",
      "stopCode": "LAS2",
      "line1": "3837 Bay Lake trail suite 111",
      "line2": null,
      "line3": null,
      "city": "NORTH LAS VEGAS",
      "state": "NV",
      "country": "US",
      "postalCode": "89030",
      "latitude": 36.229299,
      "longitude": -115.105309,
      "timeZone": "America/Los_Angeles",
      "vendorCodes": null
    },
    "destination": {
      "label": "ZAP2",
      "stopCode": "ZAP2",
      "line1": "9101 Minor Lane",
      "line2": "Suite 2",
      "line3": null,
      "city": "LOUISVILLE",
      "state": "Kentucky",
      "country": "US",
      "postalCode": "40219",
      "latitude": 38.1183394,
      "longitude": -85.7137388,
      "timeZone": "America/New_York",
      "vendorCodes": null
    },
    "totalDistance": { "value": 1860.6022833488364, "unit": "miles" },
    "payout": { "value": 4691.279563924651, "unit": "USD" },
    "radius": 78
  },
  {
    "id": "6db6303e-627a-4bc8-9afe-e712ca45bc49",
    "deadhead": null,
    "trailerStatus": "Required",
    "driverType": "Solo",
    "totalDuration": 12660000,
    "firstPickupTime": "2022-06-13T14:30:00Z",
    "lastDeliveryTime": "2022-06-13T18:01:00Z",
    "equipmentType": "45' HC Container",
    "loadType": null,
    "unloadingType": "DROP",
    "stops": 2,
    "workType": "Block",
    "origin": {
      "label": "DCA1",
      "stopCode": "DCA1",
      "line1": "1700 Sparrows Point Boulevard",
      "line2": null,
      "line3": null,
      "city": "SPARROWS POINT",
      "state": "MD",
      "country": "US",
      "postalCode": "21219-1046",
      "latitude": 39.2262011,
      "longitude": -76.4520644,
      "timeZone": "America/New_York",
      "vendorCodes": null
    },
    "destination": {
      "label": "CSXT-PHILADELPHIA",
      "stopCode": "CSXT-PHILADELPHIA",
      "line1": "3400 S. Christopher Columbus Boulevard",
      "line2": null,
      "line3": null,
      "city": "PHILADELPHIA",
      "state": "PA",
      "country": "US",
      "postalCode": "19148",
      "latitude": 39.902823,
      "longitude": -75.140251,
      "timeZone": "America/New_York",
      "vendorCodes": null
    },
    "totalDistance": { "value": 104.33257133382547, "unit": "miles" },
    "payout": { "value": 792.2625525736926, "unit": "USD" },
    "radius": 99
  },
  {
    "id": "feb9ddd7-3d3d-4052-849f-7962c28da9fa",
    "deadhead": "156.59",
    "trailerStatus": "Required",
    "driverType": "Solo",
    "totalDuration": 12660000,
    "firstPickupTime": "2022-06-13T14:30:00Z",
    "lastDeliveryTime": "2022-06-13T18:01:00Z",
    "equipmentType": "28' Trailer",
    "loadType": null,
    "unloadingType": "LIVE",
    "stops": 2,
    "workType": "One-way",
    "origin": {
      "label": "DCA1",
      "stopCode": "DCA1",
      "line1": "1700 Sparrows Point Boulevard",
      "line2": null,
      "line3": null,
      "city": "SPARROWS POINT",
      "state": "MD",
      "country": "US",
      "postalCode": "21219-1046",
      "latitude": 39.2262011,
      "longitude": -76.4520644,
      "timeZone": "America/New_York",
      "vendorCodes": null
    },
    "destination": {
      "label": "CSXT-PHILADELPHIA",
      "stopCode": "CSXT-PHILADELPHIA",
      "line1": "3400 S. Christopher Columbus Boulevard",
      "line2": null,
      "line3": null,
      "city": "PHILADELPHIA",
      "state": "PA",
      "country": "US",
      "postalCode": "19148",
      "latitude": 39.902823,
      "longitude": -75.140251,
      "timeZone": "America/New_York",
      "vendorCodes": null
    },
    "totalDistance": { "value": 104.33257133382547, "unit": "miles" },
    "payout": { "value": 792.2625525736926, "unit": "USD" },
    "radius": 53
  },
  {
    "id": "4939cf9f-3dcf-4217-9489-ca2175dd2db5",
    "deadhead": null,
    "trailerStatus": "Required",
    "driverType": "Team",
    "totalDuration": 46980000,
    "firstPickupTime": "2022-06-13T14:30:00Z",
    "lastDeliveryTime": "2022-06-14T03:33:00Z",
    "equipmentType": "45' Container",
    "loadType": null,
    "unloadingType": "LIVE",
    "stops": 2,
    "workType": "Round-trips",
    "origin": {
      "label": "LAS7",
      "stopCode": "LAS7",
      "line1": "6001 East Tropical Parkway",
      "line2": null,
      "line3": null,
      "city": "LAS VEGAS",
      "state": "Nevada",
      "country": "US",
      "postalCode": "89115",
      "latitude": 36.266633,
      "longitude": -115.041939,
      "timeZone": "America/Los_Angeles",
      "vendorCodes": null
    },
    "destination": {
      "label": "SMF6",
      "stopCode": "SMF6",
      "line1": "4930 ALLBAUGH DR",
      "line2": null,
      "line3": null,
      "city": "SACRAMENTO",
      "state": "California",
      "country": "US",
      "postalCode": "95837",
      "latitude": 38.6973111,
      "longitude": -121.5915854,
      "timeZone": "America/Los_Angeles",
      "vendorCodes": null
    },
    "totalDistance": { "value": 587.6897561429727, "unit": "miles" },
    "payout": { "value": 1378.06822608437, "unit": "USD" },
    "radius": 60
  },
  {
    "id": "9b826908-a574-4298-bf8b-1f643dadeaca",
    "deadhead": "122.23",
    "trailerStatus": "Required",
    "driverType": "Solo",
    "totalDuration": 142260000,
    "firstPickupTime": "2022-06-13T14:30:00Z",
    "lastDeliveryTime": "2022-06-15T06:01:00Z",
    "equipmentType": "40' Container",
    "loadType": null,
    "unloadingType": "LIVE",
    "stops": 2,
    "workType": "Round-trips",
    "origin": {
      "label": "LAS2",
      "stopCode": "LAS2",
      "line1": "3837 Bay Lake trail suite 111",
      "line2": null,
      "line3": null,
      "city": "NORTH LAS VEGAS",
      "state": "NV",
      "country": "US",
      "postalCode": "89030",
      "latitude": 36.229299,
      "longitude": -115.105309,
      "timeZone": "America/Los_Angeles",
      "vendorCodes": null
    },
    "destination": {
      "label": "LEX1",
      "stopCode": "LEX1",
      "line1": "1850 MERCER ROAD",
      "line2": null,
      "line3": null,
      "city": "LEXINGTON",
      "state": "KY",
      "country": "US",
      "postalCode": "40511-1013",
      "latitude": 38.07787,
      "longitude": -84.533715,
      "timeZone": "America/New_York",
      "vendorCodes": null
    },
    "totalDistance": { "value": 1918.089889469327, "unit": "miles" },
    "payout": { "value": 4432.094702422609, "unit": "USD" },
    "radius": 3
  },
  {
    "id": "d5ee1ffa-84eb-4099-84fd-a4e2eac2908e",
    "deadhead": null,
    "trailerStatus": "Required",
    "driverType": "Solo",
    "totalDuration": 61260000,
    "firstPickupTime": "2022-06-13T14:31:00Z",
    "lastDeliveryTime": "2022-06-14T07:32:00Z",
    "equipmentType": "40' HC Container",
    "loadType": null,
    "unloadingType": "LIVE",
    "stops": 2,
    "workType": "Block",
    "origin": {
      "label": "ABQ1",
      "stopCode": "ABQ1",
      "line1": "12945 Ladera Dr NW",
      "line2": null,
      "line3": null,
      "city": "ALBUQUERQUE",
      "state": "New Mexico",
      "country": "US",
      "postalCode": "87120",
      "latitude": 35.0818726,
      "longitude": -106.803516,
      "timeZone": "America/Denver",
      "vendorCodes": null
    },
    "destination": {
      "label": "HOU2",
      "stopCode": "HOU2",
      "line1": "10550 Ella Boulevard",
      "line2": null,
      "line3": null,
      "city": "HOUSTON",
      "state": "TEXAS",
      "country": "US",
      "postalCode": "77038",
      "latitude": 29.934294,
      "longitude": -95.428615,
      "timeZone": "America/Chicago",
      "vendorCodes": null
    },
    "totalDistance": { "value": 884.4672035964265, "unit": "miles" },
    "payout": { "value": 1670.705243605391, "unit": "USD" },
    "radius": 56
  },
  {
    "id": "c3c0f306-1df5-4f1a-82c0-f6c7ac06980b",
    "deadhead": "220.34",
    "trailerStatus": "Provided",
    "driverType": "Solo",
    "totalDuration": 63480000,
    "firstPickupTime": "2022-06-13T14:31:00Z",
    "lastDeliveryTime": "2022-06-14T08:09:00Z",
    "equipmentType": "53' Trailer",
    "loadType": "LIVE",
    "unloadingType": null,
    "stops": 2,
    "workType": "One-way",
    "origin": {
      "label": "ABQ1",
      "stopCode": "ABQ1",
      "line1": "12945 Ladera Dr NW",
      "line2": null,
      "line3": null,
      "city": "ALBUQUERQUE",
      "state": "New Mexico",
      "country": "US",
      "postalCode": "87120",
      "latitude": 35.0818726,
      "longitude": -106.803516,
      "timeZone": "America/Denver",
      "vendorCodes": null
    },
    "destination": {
      "label": "SAN3",
      "stopCode": "SAN3",
      "line1": "6971 OTAY MESA RD",
      "line2": null,
      "line3": null,
      "city": "SAN DIEGO",
      "state": "California",
      "country": "US",
      "postalCode": "92154-5722",
      "latitude": 32.5649925,
      "longitude": -116.929875,
      "timeZone": "America/Los_Angeles",
      "vendorCodes": null
    },
    "totalDistance": { "value": 814.8257681002319, "unit": "miles" },
    "payout": { "value": 1328.166210713169, "unit": "USD" },
    "radius": 0
  },
  {
    "id": "81a8aed6-fb84-4d13-bf1e-54249b9865d5",
    "deadhead": null,
    "trailerStatus": "Provided",
    "driverType": "Team",
    "totalDuration": 61440000,
    "firstPickupTime": "2022-06-13T14:31:00Z",
    "lastDeliveryTime": "2022-06-14T07:35:00Z",
    "equipmentType": "45' HC Container",
    "loadType": null,
    "unloadingType": "LIVE",
    "stops": 2,
    "workType": "Round-trips",
    "origin": {
      "label": "TUS5",
      "stopCode": "TUS5",
      "line1": "3590 E. Corona Road",
      "line2": null,
      "line3": null,
      "city": "TUCSON",
      "state": "Arizona",
      "country": "US",
      "postalCode": "85756",
      "latitude": 32.1222042,
      "longitude": -110.912349,
      "timeZone": "America/Phoenix",
      "vendorCodes": null
    },
    "destination": {
      "label": "SAT4",
      "stopCode": "SAT4",
      "line1": "10384 W US HIGHWAY 90",
      "line2": null,
      "line3": null,
      "city": "SAN ANTONIO",
      "state": "Texas",
      "country": "US",
      "postalCode": "78245-9512",
      "latitude": 29.3768578,
      "longitude": -98.6936103,
      "timeZone": "America/Chicago",
      "vendorCodes": null
    },
    "totalDistance": { "value": 865.900022530531, "unit": "miles" },
    "payout": { "value": 1880.414433447288, "unit": "USD" },
    "radius": 36
  },
  {
    "id": "745339ac-0756-4da8-8203-acc2f5bf6c52",
    "deadhead": null,
    "trailerStatus": "Required",
    "driverType": "Solo",
    "totalDuration": 36240000,
    "firstPickupTime": "2022-06-13T14:34:00Z",
    "lastDeliveryTime": "2022-06-14T00:38:00Z",
    "equipmentType": "45' Container",
    "loadType": "LIVE",
    "unloadingType": null,
    "stops": 2,
    "workType": "Round-trips",
    "origin": {
      "label": "RNO4",
      "stopCode": "RNO4",
      "line1": "8000 N Virginia",
      "line2": null,
      "line3": null,
      "city": "RENO",
      "state": "NEVADA",
      "country": "US",
      "postalCode": "89506-7701",
      "latitude": 39.6053929,
      "longitude": -119.8495646,
      "timeZone": "America/Los_Angeles",
      "vendorCodes": null
    },
    "destination": {
      "label": "BOI2",
      "stopCode": "BOI2",
      "line1": "5295 E. Franklin Road",
      "line2": null,
      "line3": null,
      "city": "NAMPA",
      "state": "Idaho",
      "country": "US",
      "postalCode": "83687",
      "latitude": 43.6082922,
      "longitude": -116.5287839,
      "timeZone": "America/Boise",
      "vendorCodes": null
    },
    "totalDistance": { "value": 405.7634730301787, "unit": "miles" },
    "payout": { "value": 1577.64250843203, "unit": "USD" },
    "radius": 21
  },
  {
    "id": "20c7db8b-4c7e-419b-97c7-0729bedf2faf",
    "deadhead": null,
    "trailerStatus": "Provided",
    "driverType": "Team",
    "totalDuration": 166560000,
    "firstPickupTime": "2022-06-13T14:36:00Z",
    "lastDeliveryTime": "2022-06-15T12:52:00Z",
    "equipmentType": "53' Trailer",
    "loadType": "LIVE",
    "unloadingType": null,
    "stops": 2,
    "workType": "One-way",
    "origin": {
      "label": "LAS1",
      "stopCode": "LAS1",
      "line1": "12300 Bermuda Road",
      "line2": null,
      "line3": null,
      "city": "HENDERSON",
      "state": "Nevada",
      "country": "US",
      "postalCode": "89044",
      "latitude": 35.966571,
      "longitude": -115.152358,
      "timeZone": "America/Los_Angeles",
      "vendorCodes": null
    },
    "destination": {
      "label": "HMD3",
      "stopCode": "HMD3",
      "line1": "13905 Crayton Blvd",
      "line2": null,
      "line3": null,
      "city": "HAGERSTOWN",
      "state": "Maryland",
      "country": "US",
      "postalCode": "21742-2386",
      "latitude": 39.699362,
      "longitude": -77.725677,
      "timeZone": "America/New_York",
      "vendorCodes": null
    },
    "totalDistance": { "value": 2366.4940060593012, "unit": "miles" },
    "payout": { "value": 6126.50346407329, "unit": "USD" },
    "radius": 98
  },
  {
    "id": "e86cb515-80ef-4aa9-9227-a936e327fd5d",
    "deadhead": "161.02",
    "trailerStatus": "Required",
    "driverType": "Team",
    "totalDuration": 45720000,
    "firstPickupTime": "2022-06-13T14:37:00Z",
    "lastDeliveryTime": "2022-06-14T03:19:00Z",
    "equipmentType": "26' Reefer",
    "loadType": null,
    "unloadingType": "DROP",
    "stops": 2,
    "workType": "One-way",
    "origin": {
      "label": "LAS1",
      "stopCode": "LAS1",
      "line1": "12300 Bermuda Road",
      "line2": null,
      "line3": null,
      "city": "HENDERSON",
      "state": "Nevada",
      "country": "US",
      "postalCode": "89044",
      "latitude": 35.966571,
      "longitude": -115.152358,
      "timeZone": "America/Los_Angeles",
      "vendorCodes": null
    },
    "destination": {
      "label": "SMF1",
      "stopCode": "SMF1",
      "line1": "4900 W Elkhorn Blvd",
      "line2": null,
      "line3": null,
      "city": "SACRAMENTO",
      "state": "CALIFORNIA",
      "country": "US",
      "postalCode": "95835",
      "latitude": 38.682473,
      "longitude": -121.575555,
      "timeZone": "America/Los_Angeles",
      "vendorCodes": null
    },
    "totalDistance": { "value": 568.8783728610849, "unit": "miles" },
    "payout": { "value": 1526.783492488592, "unit": "USD" },
    "radius": 9
  },
  {
    "id": "9fffc3c3-d41a-4cb0-8f20-ef1dc1143a71",
    "deadhead": null,
    "trailerStatus": "Provided",
    "driverType": "Solo",
    "totalDuration": 8100000,
    "firstPickupTime": "2022-06-13T14:40:00Z",
    "lastDeliveryTime": "2022-06-13T16:55:00Z",
    "equipmentType": "26' Truck",
    "loadType": "LIVE",
    "unloadingType": null,
    "stops": 3,
    "workType": "Block",
    "origin": {
      "label": "LAX5",
      "stopCode": "LAX5",
      "line1": "6400 Valley View Street",
      "line2": null,
      "line3": null,
      "city": "BUENA PARK",
      "state": "CALIFORNIA",
      "country": "US",
      "postalCode": "90620",
      "latitude": 33.867102,
      "longitude": -118.02816,
      "timeZone": "America/Los_Angeles",
      "vendorCodes": null
    },
    "destination": {
      "label": "PZ22872",
      "stopCode": "PZ22872",
      "line1": "1653 7TH ST",
      "line2": null,
      "line3": null,
      "city": "SANTA MONICA",
      "state": "CA",
      "country": "US",
      "postalCode": "90401",
      "latitude": 34.014779,
      "longitude": -118.487537,
      "timeZone": "America/Los_Angeles",
      "vendorCodes": null
    },
    "totalDistance": { "value": 36.14454008481824, "unit": "miles" },
    "payout": { "value": 266.87960759665, "unit": "USD" },
    "radius": 7
  },
  {
    "id": "056c3962-2ad7-4b05-8059-b7f3be26cec3",
    "deadhead": null,
    "trailerStatus": "Required",
    "driverType": "Solo",
    "totalDuration": 14580000,
    "firstPickupTime": "2022-06-13T14:40:00Z",
    "lastDeliveryTime": "2022-06-13T18:43:00Z",
    "equipmentType": "45' Container",
    "loadType": "LIVE",
    "unloadingType": null,
    "stops": 2,
    "workType": "Round-trips",
    "origin": {
      "label": "SAN5",
      "stopCode": "SAN5",
      "line1": "7144 OTAY MESA RD",
      "line2": null,
      "line3": null,
      "city": "SAN DIEGO",
      "state": "California",
      "country": "US",
      "postalCode": "92154-7719",
      "latitude": 32.567594,
      "longitude": -116.925476,
      "timeZone": "America/Los_Angeles",
      "vendorCodes": null
    },
    "destination": {
      "label": "PZ20875",
      "stopCode": "PZ20875",
      "line1": "66311 TWO BUNCH PALMS TRL",
      "line2": null,
      "line3": null,
      "city": "DESERT HOT SPRINGS",
      "state": "CA",
      "country": "US",
      "postalCode": "92240",
      "latitude": 33.9463065,
      "longitude": -116.504662,
      "timeZone": "America/Los_Angeles",
      "vendorCodes": null
    },
    "totalDistance": { "value": 157.86183740362046, "unit": "miles" },
    "payout": { "value": 531.8243596119912, "unit": "USD" },
    "radius": 26
  },
  {
    "id": "7524b33a-8f5a-4146-b978-f7ce3c145f5c",
    "deadhead": "143.83",
    "trailerStatus": "Required",
    "driverType": "Solo",
    "totalDuration": 88680000,
    "firstPickupTime": "2022-06-13T14:45:00Z",
    "lastDeliveryTime": "2022-06-14T15:23:00Z",
    "equipmentType": "53' Reefer",
    "loadType": "LIVE",
    "unloadingType": null,
    "stops": 2,
    "workType": "Block",
    "origin": {
      "label": "ONT9",
      "stopCode": "ONT9",
      "line1": "2125 San Bernadino Avenue",
      "line2": null,
      "line3": null,
      "city": "REDLANDS",
      "state": "CALIFORNIA",
      "country": "US",
      "postalCode": "92374-5005",
      "latitude": 34.0757323,
      "longitude": -117.2284449,
      "timeZone": "America/Los_Angeles",
      "vendorCodes": null
    },
    "destination": {
      "label": "ONT9",
      "stopCode": "ONT9",
      "line1": "2125 San Bernadino Avenue",
      "line2": null,
      "line3": null,
      "city": "REDLANDS",
      "state": "CALIFORNIA",
      "country": "US",
      "postalCode": "92374-5005",
      "latitude": 34.0757323,
      "longitude": -117.2284449,
      "timeZone": "America/Los_Angeles",
      "vendorCodes": null
    },
    "totalDistance": { "value": 129.00722377161645, "unit": "miles" },
    "payout": { "value": 800.0035320332798, "unit": "USD" },
    "radius": 9
  },
  {
    "id": "99510d97-2228-4251-8f9a-0084c211901e",
    "deadhead": "199.25",
    "trailerStatus": "Required",
    "driverType": "Team",
    "totalDuration": 173760000,
    "firstPickupTime": "2022-06-13T14:45:00Z",
    "lastDeliveryTime": "2022-06-15T15:01:00Z",
    "equipmentType": "40' Container",
    "loadType": "LIVE",
    "unloadingType": null,
    "stops": 2,
    "workType": "One-way",
    "origin": {
      "label": "GYR2",
      "stopCode": "GYR2",
      "line1": "17341 W Minnezona Ave",
      "line2": null,
      "line3": null,
      "city": "GOODYEAR",
      "state": "Arizona",
      "country": "US",
      "postalCode": "85395-9223",
      "latitude": 33.4960081,
      "longitude": -112.432077,
      "timeZone": "America/Phoenix",
      "vendorCodes": null
    },
    "destination": {
      "label": "SMITH_TRANSPORT_WAREHOUSE",
      "stopCode": "SMITH_TRANSPORT_WAREHOUSE",
      "line1": "153 Smith Transport Rd",
      "line2": null,
      "line3": null,
      "city": "ROARING SPRING",
      "state": "PA",
      "country": "US",
      "postalCode": "16673",
      "latitude": 40.322298,
      "longitude": -78.386463,
      "timeZone": "America/New_York",
      "vendorCodes": null
    },
    "totalDistance": { "value": 2274.176238744249, "unit": "miles" },
    "payout": { "value": 4967.252000203302, "unit": "USD" },
    "radius": 9
  },
  {
    "id": "aa54c379-dfcd-4394-8b35-14e0dc114b79",
    "deadhead": null,
    "trailerStatus": "Required",
    "driverType": "Solo",
    "totalDuration": 23280000,
    "firstPickupTime": "2022-06-13T14:45:00Z",
    "lastDeliveryTime": "2022-06-13T21:13:00Z",
    "equipmentType": "40' HC Container",
    "loadType": null,
    "unloadingType": "LIVE",
    "stops": 2,
    "workType": "Round-trips",
    "origin": {
      "label": "0-94001951",
      "stopCode": "0-94001951",
      "line1": "5650 DOLLY AVE",
      "line2": null,
      "line3": null,
      "city": "BUENA PARK",
      "state": "CA",
      "country": "US",
      "postalCode": "90621",
      "latitude": 33.880579,
      "longitude": -118.005691,
      "timeZone": "America/Los_Angeles",
      "vendorCodes": null
    },
    "destination": {
      "label": "PSP1",
      "stopCode": "PSP1",
      "line1": "1010 W 4th Street",
      "line2": null,
      "line3": null,
      "city": "BEAUMONT",
      "state": "CA",
      "country": "US",
      "postalCode": "92223",
      "latitude": 33.92609,
      "longitude": -116.999385,
      "timeZone": "America/Los_Angeles",
      "vendorCodes": null
    },
    "totalDistance": { "value": 89.42711981916962, "unit": "miles" },
    "payout": { "value": 535.2814928279938, "unit": "USD" },
    "radius": 20
  },
  {
    "id": "377eec28-03f3-4dae-9872-32cd32256636",
    "deadhead": null,
    "trailerStatus": "Required",
    "driverType": "Solo",
    "totalDuration": 4020000,
    "firstPickupTime": "2022-06-13T14:45:00Z",
    "lastDeliveryTime": "2022-06-13T15:52:00Z",
    "equipmentType": "26' Truck",
    "loadType": "LIVE",
    "unloadingType": null,
    "stops": 2,
    "workType": "Block",
    "origin": {
      "label": "PHNL",
      "stopCode": "PHNL",
      "line1": "Pacific Air Cargo, 111 Keehi Place",
      "line2": null,
      "line3": null,
      "city": "HONOLULU",
      "state": "HAWAII",
      "country": "US",
      "postalCode": "96819",
      "latitude": 21.3175344,
      "longitude": -157.914785,
      "timeZone": "Pacific/Honolulu",
      "vendorCodes": null
    },
    "destination": {
      "label": "HP-OAHU",
      "stopCode": "HP-OAHU",
      "line1": "2635 Waiwai Loop",
      "line2": null,
      "line3": null,
      "city": "HONOLULU",
      "state": "HI",
      "country": "US",
      "postalCode": "96819",
      "latitude": 21.333017,
      "longitude": -157.900278,
      "timeZone": "Pacific/Honolulu",
      "vendorCodes": null
    },
    "totalDistance": { "value": 1.6118369354777335, "unit": "miles" },
    "payout": { "value": 381.1766410828988, "unit": "USD" },
    "radius": 38
  },
  {
    "id": "54d86c5f-3047-42a2-8a6f-08991b54bfb5",
    "deadhead": null,
    "trailerStatus": "Provided",
    "driverType": "Solo",
    "totalDuration": 11760000,
    "firstPickupTime": "2022-06-13T14:45:00Z",
    "lastDeliveryTime": "2022-06-13T18:01:00Z",
    "equipmentType": "40' Container",
    "loadType": "LIVE",
    "unloadingType": null,
    "stops": 2,
    "workType": "One-way",
    "origin": {
      "label": "1144Y8KVX_ITR",
      "stopCode": "1144Y8KVX_ITR",
      "line1": "Lebec, CA 93243, United States",
      "line2": null,
      "line3": null,
      "city": "LEBEC",
      "state": "CA",
      "country": "US",
      "postalCode": "93243",
      "latitude": 34.8772386,
      "longitude": -118.8525794,
      "timeZone": "America/Los_Angeles",
      "vendorCodes": null
    },
    "destination": {
      "label": "ONT5",
      "stopCode": "ONT5",
      "line1": "2020 E CENTRAL AVE",
      "line2": null,
      "line3": null,
      "city": "SAN BERNARDINO",
      "state": "CALIFORNIA",
      "country": "US",
      "postalCode": "92408-2606",
      "latitude": 34.088867,
      "longitude": -117.242641,
      "timeZone": "America/Los_Angeles",
      "vendorCodes": null
    },
    "totalDistance": { "value": 130.35435783903836, "unit": "miles" },
    "payout": { "value": 385.858529542498, "unit": "USD" },
    "radius": 1
  },
  {
    "id": "5ec99ff9-7d95-4f20-8ddc-886cad6abc00",
    "deadhead": null,
    "trailerStatus": "Required",
    "driverType": "Solo",
    "totalDuration": 7980000,
    "firstPickupTime": "2022-06-13T14:50:00Z",
    "lastDeliveryTime": "2022-06-13T17:03:00Z",
    "equipmentType": "45' HC Container",
    "loadType": "LIVE",
    "unloadingType": null,
    "stops": 4,
    "workType": "One-way",
    "origin": {
      "label": "SAN5",
      "stopCode": "SAN5",
      "line1": "7144 OTAY MESA RD",
      "line2": null,
      "line3": null,
      "city": "SAN DIEGO",
      "state": "California",
      "country": "US",
      "postalCode": "92154-7719",
      "latitude": 32.567594,
      "longitude": -116.925476,
      "timeZone": "America/Los_Angeles",
      "vendorCodes": null
    },
    "destination": {
      "label": "S016730",
      "stopCode": "S016730",
      "line1": "2701 MIDWAY DR",
      "line2": null,
      "line3": null,
      "city": "SAN DIEGO",
      "state": "CA",
      "country": "US",
      "postalCode": "92110",
      "latitude": 32.7466185,
      "longitude": -117.20394,
      "timeZone": "America/Los_Angeles",
      "vendorCodes": null
    },
    "totalDistance": { "value": 35.14040472171267, "unit": "miles" },
    "payout": { "value": 349.3273139969419, "unit": "USD" },
    "radius": 89
  },
  {
    "id": "38c4912c-96a4-4fec-b823-d8d4b0f0131e",
    "deadhead": "53.48",
    "trailerStatus": "Provided",
    "driverType": "Solo",
    "totalDuration": 9060000,
    "firstPickupTime": "2022-06-13T14:58:00Z",
    "lastDeliveryTime": "2022-06-13T17:29:00Z",
    "equipmentType": "20' Container",
    "loadType": null,
    "unloadingType": "DROP",
    "stops": 2,
    "workType": "Round-trips",
    "origin": {
      "label": "112L89479_ITR",
      "stopCode": "112L89479_ITR",
      "line1": "Darien, CT 06820, United States",
      "line2": null,
      "line3": null,
      "city": "DARIEN",
      "state": "CT",
      "country": "US",
      "postalCode": "06820",
      "latitude": 41.080187,
      "longitude": -73.4824037,
      "timeZone": "America/New_York",
      "vendorCodes": null
    },
    "destination": {
      "label": "HFD5",
      "stopCode": "HFD5",
      "line1": "1339 TOLLAND TPKE, MANCHESTER, Connecticut 06042-8928",
      "line2": null,
      "line3": null,
      "city": "MANCHESTER",
      "state": "Connecticut",
      "country": "US",
      "postalCode": "06042-8928",
      "latitude": 41.799825,
      "longitude": -72.5629293,
      "timeZone": "America/New_York",
      "vendorCodes": null
    },
    "totalDistance": { "value": 80.03198568589417, "unit": "miles" },
    "payout": { "value": 433.4236897107028, "unit": "USD" },
    "radius": 0
  },
  {
    "id": "b5f7b2dd-77d1-4ef0-b2b1-19f84a36344e",
    "deadhead": null,
    "trailerStatus": "Required",
    "driverType": "Solo",
    "totalDuration": 10980000,
    "firstPickupTime": "2022-06-13T14:58:00Z",
    "lastDeliveryTime": "2022-06-13T18:01:00Z",
    "equipmentType": "28' Trailer",
    "loadType": "LIVE",
    "unloadingType": null,
    "stops": 2,
    "workType": "One-way",
    "origin": {
      "label": "0-119923481",
      "stopCode": "0-119923481",
      "line1": "15835 San Antonio Avenue",
      "line2": null,
      "line3": null,
      "city": "CHINO",
      "state": "CA",
      "country": "US",
      "postalCode": "91708",
      "latitude": 33.9652346,
      "longitude": -117.65645,
      "timeZone": "America/Los_Angeles",
      "vendorCodes": null
    },
    "destination": {
      "label": "SBD1",
      "stopCode": "SBD1",
      "line1": "3388 S Cactus Ave",
      "line2": null,
      "line3": null,
      "city": "BLOOMINGTON",
      "state": "California",
      "country": "US",
      "postalCode": "92316",
      "latitude": 34.039996,
      "longitude": -117.385011,
      "timeZone": "America/Los_Angeles",
      "vendorCodes": null
    },
    "totalDistance": { "value": 22.750883846515062, "unit": "miles" },
    "payout": { "value": 349.108094947956, "unit": "USD" },
    "radius": 21
  },
  {
    "id": "43b3df93-2cbd-4ba5-b0fd-d1356e6691eb",
    "deadhead": null,
    "trailerStatus": "Provided",
    "driverType": "Solo",
    "totalDuration": 12660000,
    "firstPickupTime": "2022-06-13T14:59:00Z",
    "lastDeliveryTime": "2022-06-13T18:30:00Z",
    "equipmentType": "45' HC Container",
    "loadType": "LIVE",
    "unloadingType": null,
    "stops": 2,
    "workType": "One-way",
    "origin": {
      "label": "CAE1",
      "stopCode": "CAE1",
      "line1": "4400 12th Street Extension",
      "line2": null,
      "line3": null,
      "city": "WEST COLUMBIA",
      "state": "SC",
      "country": "US",
      "postalCode": "29172-3300",
      "latitude": 33.910728,
      "longitude": -81.049637,
      "timeZone": "America/New_York",
      "vendorCodes": null
    },
    "destination": {
      "label": "NSRR-CHARLOTTE",
      "stopCode": "NSRR-CHARLOTTE",
      "line1": "5710 West Boulevard",
      "line2": null,
      "line3": null,
      "city": "CHARLOTTE",
      "state": "NC",
      "country": "US",
      "postalCode": "28208",
      "latitude": 35.196772,
      "longitude": -80.956892,
      "timeZone": "America/New_York",
      "vendorCodes": null
    },
    "totalDistance": { "value": 99.15903228417525, "unit": "miles" },
    "payout": { "value": 623.3858836374479, "unit": "USD" },
    "radius": 8
  },
  {
    "id": "c4d38e9c-73a3-4152-9ce7-69d05f881f76",
    "deadhead": null,
    "trailerStatus": "Required",
    "driverType": "Solo",
    "totalDuration": 12660000,
    "firstPickupTime": "2022-06-13T14:59:00Z",
    "lastDeliveryTime": "2022-06-13T18:30:00Z",
    "equipmentType": "45' HC Container",
    "loadType": "LIVE",
    "unloadingType": null,
    "stops": 2,
    "workType": "Block",
    "origin": {
      "label": "DCA1",
      "stopCode": "DCA1",
      "line1": "1700 Sparrows Point Boulevard",
      "line2": null,
      "line3": null,
      "city": "SPARROWS POINT",
      "state": "MD",
      "country": "US",
      "postalCode": "21219-1046",
      "latitude": 39.2262011,
      "longitude": -76.4520644,
      "timeZone": "America/New_York",
      "vendorCodes": null
    },
    "destination": {
      "label": "CSXT-PHILADELPHIA",
      "stopCode": "CSXT-PHILADELPHIA",
      "line1": "3400 S. Christopher Columbus Boulevard",
      "line2": null,
      "line3": null,
      "city": "PHILADELPHIA",
      "state": "PA",
      "country": "US",
      "postalCode": "19148",
      "latitude": 39.902823,
      "longitude": -75.140251,
      "timeZone": "America/New_York",
      "vendorCodes": null
    },
    "totalDistance": { "value": 104.33257133382547, "unit": "miles" },
    "payout": { "value": 792.2625525736926, "unit": "USD" },
    "radius": 23
  },
  {
    "id": "f3ce4f09-d049-4606-b981-a2ab8f7432c9",
    "deadhead": "5.15",
    "trailerStatus": "Provided",
    "driverType": "Solo",
    "totalDuration": 12660000,
    "firstPickupTime": "2022-06-13T14:59:00Z",
    "lastDeliveryTime": "2022-06-13T18:30:00Z",
    "equipmentType": "53' Trailer",
    "loadType": "PRELOADED",
    "unloadingType": null,
    "stops": 2,
    "workType": "One-way",
    "origin": {
      "label": "DCA1",
      "stopCode": "DCA1",
      "line1": "1700 Sparrows Point Boulevard",
      "line2": null,
      "line3": null,
      "city": "SPARROWS POINT",
      "state": "MD",
      "country": "US",
      "postalCode": "21219-1046",
      "latitude": 39.2262011,
      "longitude": -76.4520644,
      "timeZone": "America/New_York",
      "vendorCodes": null
    },
    "destination": {
      "label": "CSXT-PHILADELPHIA",
      "stopCode": "CSXT-PHILADELPHIA",
      "line1": "3400 S. Christopher Columbus Boulevard",
      "line2": null,
      "line3": null,
      "city": "PHILADELPHIA",
      "state": "PA",
      "country": "US",
      "postalCode": "19148",
      "latitude": 39.902823,
      "longitude": -75.140251,
      "timeZone": "America/New_York",
      "vendorCodes": null
    },
    "totalDistance": { "value": 104.33257133382547, "unit": "miles" },
    "payout": { "value": 792.2625525736926, "unit": "USD" },
    "radius": 47
  },
  {
    "id": "e8c92e71-e904-4bc4-ad92-01f1f4d8169c",
    "deadhead": null,
    "trailerStatus": "Provided",
    "driverType": "Solo",
    "totalDuration": 12660000,
    "firstPickupTime": "2022-06-13T14:59:00Z",
    "lastDeliveryTime": "2022-06-13T18:30:00Z",
    "equipmentType": "26' Truck",
    "loadType": "LIVE",
    "unloadingType": null,
    "stops": 2,
    "workType": "Round-trips",
    "origin": {
      "label": "DCA1",
      "stopCode": "DCA1",
      "line1": "1700 Sparrows Point Boulevard",
      "line2": null,
      "line3": null,
      "city": "SPARROWS POINT",
      "state": "MD",
      "country": "US",
      "postalCode": "21219-1046",
      "latitude": 39.2262011,
      "longitude": -76.4520644,
      "timeZone": "America/New_York",
      "vendorCodes": null
    },
    "destination": {
      "label": "CSXT-PHILADELPHIA",
      "stopCode": "CSXT-PHILADELPHIA",
      "line1": "3400 S. Christopher Columbus Boulevard",
      "line2": null,
      "line3": null,
      "city": "PHILADELPHIA",
      "state": "PA",
      "country": "US",
      "postalCode": "19148",
      "latitude": 39.902823,
      "longitude": -75.140251,
      "timeZone": "America/New_York",
      "vendorCodes": null
    },
    "totalDistance": { "value": 104.33257133382547, "unit": "miles" },
    "payout": { "value": 792.2625525736926, "unit": "USD" },
    "radius": 56
  },
  {
    "id": "4f32f32b-4643-4e0d-84bc-2d9f81bd5c68",
    "deadhead": null,
    "trailerStatus": "Provided",
    "driverType": "Solo",
    "totalDuration": 12660000,
    "firstPickupTime": "2022-06-13T14:59:00Z",
    "lastDeliveryTime": "2022-06-13T18:30:00Z",
    "equipmentType": "45' HC Container",
    "loadType": "LIVE",
    "unloadingType": null,
    "stops": 2,
    "workType": "Round-trips",
    "origin": {
      "label": "DCA1",
      "stopCode": "DCA1",
      "line1": "1700 Sparrows Point Boulevard",
      "line2": null,
      "line3": null,
      "city": "SPARROWS POINT",
      "state": "MD",
      "country": "US",
      "postalCode": "21219-1046",
      "latitude": 39.2262011,
      "longitude": -76.4520644,
      "timeZone": "America/New_York",
      "vendorCodes": null
    },
    "destination": {
      "label": "CSXT-PHILADELPHIA",
      "stopCode": "CSXT-PHILADELPHIA",
      "line1": "3400 S. Christopher Columbus Boulevard",
      "line2": null,
      "line3": null,
      "city": "PHILADELPHIA",
      "state": "PA",
      "country": "US",
      "postalCode": "19148",
      "latitude": 39.902823,
      "longitude": -75.140251,
      "timeZone": "America/New_York",
      "vendorCodes": null
    },
    "totalDistance": { "value": 104.33257133382547, "unit": "miles" },
    "payout": { "value": 792.2625525736926, "unit": "USD" },
    "radius": 45
  },
  {
    "id": "1af22d4f-b654-490f-ae50-b2866525dcdd",
    "deadhead": null,
    "trailerStatus": "Provided",
    "driverType": "Solo",
    "totalDuration": 12660000,
    "firstPickupTime": "2022-06-13T14:59:00Z",
    "lastDeliveryTime": "2022-06-13T18:30:00Z",
    "equipmentType": "53' Trailer",
    "loadType": "PRELOADED",
    "unloadingType": null,
    "stops": 2,
    "workType": "Round-trips",
    "origin": {
      "label": "DCA1",
      "stopCode": "DCA1",
      "line1": "1700 Sparrows Point Boulevard",
      "line2": null,
      "line3": null,
      "city": "SPARROWS POINT",
      "state": "MD",
      "country": "US",
      "postalCode": "21219-1046",
      "latitude": 39.2262011,
      "longitude": -76.4520644,
      "timeZone": "America/New_York",
      "vendorCodes": null
    },
    "destination": {
      "label": "CSXT-PHILADELPHIA",
      "stopCode": "CSXT-PHILADELPHIA",
      "line1": "3400 S. Christopher Columbus Boulevard",
      "line2": null,
      "line3": null,
      "city": "PHILADELPHIA",
      "state": "PA",
      "country": "US",
      "postalCode": "19148",
      "latitude": 39.902823,
      "longitude": -75.140251,
      "timeZone": "America/New_York",
      "vendorCodes": null
    },
    "totalDistance": { "value": 104.33257133382547, "unit": "miles" },
    "payout": { "value": 792.2625525736926, "unit": "USD" },
    "radius": 43
  },
  {
    "id": "81508f18-5f99-4090-90e7-7cfee1d627e2",
    "deadhead": "152.04",
    "trailerStatus": "Provided",
    "driverType": "Solo",
    "totalDuration": 12660000,
    "firstPickupTime": "2022-06-13T14:59:00Z",
    "lastDeliveryTime": "2022-06-13T18:30:00Z",
    "equipmentType": "45' HC Container",
    "loadType": "LIVE",
    "unloadingType": null,
    "stops": 2,
    "workType": "Round-trips",
    "origin": {
      "label": "DCA1",
      "stopCode": "DCA1",
      "line1": "1700 Sparrows Point Boulevard",
      "line2": null,
      "line3": null,
      "city": "SPARROWS POINT",
      "state": "MD",
      "country": "US",
      "postalCode": "21219-1046",
      "latitude": 39.2262011,
      "longitude": -76.4520644,
      "timeZone": "America/New_York",
      "vendorCodes": null
    },
    "destination": {
      "label": "CSXT-PHILADELPHIA",
      "stopCode": "CSXT-PHILADELPHIA",
      "line1": "3400 S. Christopher Columbus Boulevard",
      "line2": null,
      "line3": null,
      "city": "PHILADELPHIA",
      "state": "PA",
      "country": "US",
      "postalCode": "19148",
      "latitude": 39.902823,
      "longitude": -75.140251,
      "timeZone": "America/New_York",
      "vendorCodes": null
    },
    "totalDistance": { "value": 104.33257133382547, "unit": "miles" },
    "payout": { "value": 792.2625525736926, "unit": "USD" },
    "radius": 78
  },
  {
    "id": "24205959-1d9f-4410-98b7-ec9125679f38",
    "deadhead": "26.42",
    "trailerStatus": "Provided",
    "driverType": "Solo",
    "totalDuration": 12660000,
    "firstPickupTime": "2022-06-13T14:59:00Z",
    "lastDeliveryTime": "2022-06-13T18:30:00Z",
    "equipmentType": "20' Container",
    "loadType": "PRELOADED",
    "unloadingType": null,
    "stops": 2,
    "workType": "One-way",
    "origin": {
      "label": "DCA1",
      "stopCode": "DCA1",
      "line1": "1700 Sparrows Point Boulevard",
      "line2": null,
      "line3": null,
      "city": "SPARROWS POINT",
      "state": "MD",
      "country": "US",
      "postalCode": "21219-1046",
      "latitude": 39.2262011,
      "longitude": -76.4520644,
      "timeZone": "America/New_York",
      "vendorCodes": null
    },
    "destination": {
      "label": "CSXT-PHILADELPHIA",
      "stopCode": "CSXT-PHILADELPHIA",
      "line1": "3400 S. Christopher Columbus Boulevard",
      "line2": null,
      "line3": null,
      "city": "PHILADELPHIA",
      "state": "PA",
      "country": "US",
      "postalCode": "19148",
      "latitude": 39.902823,
      "longitude": -75.140251,
      "timeZone": "America/New_York",
      "vendorCodes": null
    },
    "totalDistance": { "value": 104.33257133382547, "unit": "miles" },
    "payout": { "value": 792.2625525736926, "unit": "USD" },
    "radius": 41
  },
  {
    "id": "a9adf85a-c649-4e0d-81cb-1d2522a15b06",
    "deadhead": null,
    "trailerStatus": "Provided",
    "driverType": "Solo",
    "totalDuration": 12660000,
    "firstPickupTime": "2022-06-13T14:59:00Z",
    "lastDeliveryTime": "2022-06-13T18:30:00Z",
    "equipmentType": "40' HC Container",
    "loadType": "PRELOADED",
    "unloadingType": null,
    "stops": 2,
    "workType": "Round-trips",
    "origin": {
      "label": "DCA1",
      "stopCode": "DCA1",
      "line1": "1700 Sparrows Point Boulevard",
      "line2": null,
      "line3": null,
      "city": "SPARROWS POINT",
      "state": "MD",
      "country": "US",
      "postalCode": "21219-1046",
      "latitude": 39.2262011,
      "longitude": -76.4520644,
      "timeZone": "America/New_York",
      "vendorCodes": null
    },
    "destination": {
      "label": "CSXT-PHILADELPHIA",
      "stopCode": "CSXT-PHILADELPHIA",
      "line1": "3400 S. Christopher Columbus Boulevard",
      "line2": null,
      "line3": null,
      "city": "PHILADELPHIA",
      "state": "PA",
      "country": "US",
      "postalCode": "19148",
      "latitude": 39.902823,
      "longitude": -75.140251,
      "timeZone": "America/New_York",
      "vendorCodes": null
    },
    "totalDistance": { "value": 104.33257133382547, "unit": "miles" },
    "payout": { "value": 792.2625525736926, "unit": "USD" },
    "radius": 34
  },
  {
    "id": "6d20ab15-900d-4e32-8223-a1e5b35a5f7e",
    "deadhead": "119.77",
    "trailerStatus": "Provided",
    "driverType": "Solo",
    "totalDuration": 12660000,
    "firstPickupTime": "2022-06-13T14:59:00Z",
    "lastDeliveryTime": "2022-06-13T18:30:00Z",
    "equipmentType": "53' Reefer",
    "loadType": "LIVE",
    "unloadingType": null,
    "stops": 2,
    "workType": "One-way",
    "origin": {
      "label": "DCA1",
      "stopCode": "DCA1",
      "line1": "1700 Sparrows Point Boulevard",
      "line2": null,
      "line3": null,
      "city": "SPARROWS POINT",
      "state": "MD",
      "country": "US",
      "postalCode": "21219-1046",
      "latitude": 39.2262011,
      "longitude": -76.4520644,
      "timeZone": "America/New_York",
      "vendorCodes": null
    },
    "destination": {
      "label": "CSXT-PHILADELPHIA",
      "stopCode": "CSXT-PHILADELPHIA",
      "line1": "3400 S. Christopher Columbus Boulevard",
      "line2": null,
      "line3": null,
      "city": "PHILADELPHIA",
      "state": "PA",
      "country": "US",
      "postalCode": "19148",
      "latitude": 39.902823,
      "longitude": -75.140251,
      "timeZone": "America/New_York",
      "vendorCodes": null
    },
    "totalDistance": { "value": 104.33257133382547, "unit": "miles" },
    "payout": { "value": 792.2625525736926, "unit": "USD" },
    "radius": 97
  },
  {
    "id": "e08b4f87-6ef2-4f92-90d7-5b76c44aae45",
    "deadhead": "259.26",
    "trailerStatus": "Provided",
    "driverType": "Solo",
    "totalDuration": 12660000,
    "firstPickupTime": "2022-06-13T14:59:00Z",
    "lastDeliveryTime": "2022-06-13T18:30:00Z",
    "equipmentType": "53' Trailer",
    "loadType": null,
    "unloadingType": "LIVE",
    "stops": 2,
    "workType": "Block",
    "origin": {
      "label": "DCA1",
      "stopCode": "DCA1",
      "line1": "1700 Sparrows Point Boulevard",
      "line2": null,
      "line3": null,
      "city": "SPARROWS POINT",
      "state": "MD",
      "country": "US",
      "postalCode": "21219-1046",
      "latitude": 39.2262011,
      "longitude": -76.4520644,
      "timeZone": "America/New_York",
      "vendorCodes": null
    },
    "destination": {
      "label": "CSXT-PHILADELPHIA",
      "stopCode": "CSXT-PHILADELPHIA",
      "line1": "3400 S. Christopher Columbus Boulevard",
      "line2": null,
      "line3": null,
      "city": "PHILADELPHIA",
      "state": "PA",
      "country": "US",
      "postalCode": "19148",
      "latitude": 39.902823,
      "longitude": -75.140251,
      "timeZone": "America/New_York",
      "vendorCodes": null
    },
    "totalDistance": { "value": 104.33257133382547, "unit": "miles" },
    "payout": { "value": 792.2625525736926, "unit": "USD" },
    "radius": 100
  },
  {
    "id": "5953245f-f4f3-4018-b134-43d670eecd0b",
    "deadhead": null,
    "trailerStatus": "Provided",
    "driverType": "Solo",
    "totalDuration": 12660000,
    "firstPickupTime": "2022-06-13T14:59:00Z",
    "lastDeliveryTime": "2022-06-13T18:30:00Z",
    "equipmentType": "53' Trailer",
    "loadType": "LIVE",
    "unloadingType": null,
    "stops": 2,
    "workType": "One-way",
    "origin": {
      "label": "DCA1",
      "stopCode": "DCA1",
      "line1": "1700 Sparrows Point Boulevard",
      "line2": null,
      "line3": null,
      "city": "SPARROWS POINT",
      "state": "MD",
      "country": "US",
      "postalCode": "21219-1046",
      "latitude": 39.2262011,
      "longitude": -76.4520644,
      "timeZone": "America/New_York",
      "vendorCodes": null
    },
    "destination": {
      "label": "CSXT-PHILADELPHIA",
      "stopCode": "CSXT-PHILADELPHIA",
      "line1": "3400 S. Christopher Columbus Boulevard",
      "line2": null,
      "line3": null,
      "city": "PHILADELPHIA",
      "state": "PA",
      "country": "US",
      "postalCode": "19148",
      "latitude": 39.902823,
      "longitude": -75.140251,
      "timeZone": "America/New_York",
      "vendorCodes": null
    },
    "totalDistance": { "value": 104.33257133382547, "unit": "miles" },
    "payout": { "value": 792.2625525736926, "unit": "USD" },
    "radius": 61
  },
  {
    "id": "c6fc9c65-e482-4a99-824b-66c60af76ed4",
    "deadhead": null,
    "trailerStatus": "Provided",
    "driverType": "Solo",
    "totalDuration": 12660000,
    "firstPickupTime": "2022-06-13T14:59:00Z",
    "lastDeliveryTime": "2022-06-13T18:30:00Z",
    "equipmentType": "28' Trailer",
    "loadType": null,
    "unloadingType": "DROP",
    "stops": 2,
    "workType": "Round-trips",
    "origin": {
      "label": "DCA1",
      "stopCode": "DCA1",
      "line1": "1700 Sparrows Point Boulevard",
      "line2": null,
      "line3": null,
      "city": "SPARROWS POINT",
      "state": "MD",
      "country": "US",
      "postalCode": "21219-1046",
      "latitude": 39.2262011,
      "longitude": -76.4520644,
      "timeZone": "America/New_York",
      "vendorCodes": null
    },
    "destination": {
      "label": "CSXT-PHILADELPHIA",
      "stopCode": "CSXT-PHILADELPHIA",
      "line1": "3400 S. Christopher Columbus Boulevard",
      "line2": null,
      "line3": null,
      "city": "PHILADELPHIA",
      "state": "PA",
      "country": "US",
      "postalCode": "19148",
      "latitude": 39.902823,
      "longitude": -75.140251,
      "timeZone": "America/New_York",
      "vendorCodes": null
    },
    "totalDistance": { "value": 104.33257133382547, "unit": "miles" },
    "payout": { "value": 792.2625525736926, "unit": "USD" },
    "radius": 8
  },
  {
    "id": "2759030f-09d7-42b3-a758-b854b652664a",
    "deadhead": null,
    "trailerStatus": "Provided",
    "driverType": "Solo",
    "totalDuration": 86400000,
    "firstPickupTime": "2022-06-13T15:00:00Z",
    "lastDeliveryTime": "2022-06-14T15:00:00Z",
    "equipmentType": "53' Reefer",
    "loadType": "LIVE",
    "unloadingType": null,
    "stops": 2,
    "workType": "One-way",
    "origin": {
      "label": "BNSF-LOSANGELES-MC",
      "stopCode": "BNSF-LOSANGELES-MC",
      "line1": "4000 E SHELIA STREET",
      "line2": null,
      "line3": null,
      "city": "LOS ANGELES",
      "state": "CA",
      "country": "US",
      "postalCode": "90023",
      "latitude": 34.0217049,
      "longitude": -118.2004532,
      "timeZone": "America/Los_Angeles",
      "vendorCodes": null
    },
    "destination": {
      "label": "SCK4",
      "stopCode": "SCK4",
      "line1": "6001 S AUSTIN RD",
      "line2": null,
      "line3": null,
      "city": "STOCKTON",
      "state": "California",
      "country": "US",
      "postalCode": "95215",
      "latitude": 37.908911,
      "longitude": -121.188709,
      "timeZone": "America/Los_Angeles",
      "vendorCodes": null
    },
    "totalDistance": { "value": 345.0672884199051, "unit": "miles" },
    "payout": { "value": 1495.451575146531, "unit": "USD" },
    "radius": 63
  },
  {
    "id": "330874d7-3a04-4cc1-9bae-9cf172882ddb",
    "deadhead": "49.51",
    "trailerStatus": "Provided",
    "driverType": "Team",
    "totalDuration": 66960000,
    "firstPickupTime": "2022-06-13T15:00:00Z",
    "lastDeliveryTime": "2022-06-14T09:36:00Z",
    "equipmentType": "53' Container",
    "loadType": null,
    "unloadingType": "DROP",
    "stops": 2,
    "workType": "Block",
    "origin": {
      "label": "LAS2",
      "stopCode": "LAS2",
      "line1": "3837 Bay Lake trail suite 111",
      "line2": null,
      "line3": null,
      "city": "NORTH LAS VEGAS",
      "state": "NV",
      "country": "US",
      "postalCode": "89030",
      "latitude": 36.229299,
      "longitude": -115.105309,
      "timeZone": "America/Los_Angeles",
      "vendorCodes": null
    },
    "destination": {
      "label": "AMA1",
      "stopCode": "AMA1",
      "line1": "8590 NE 24th Ave",
      "line2": null,
      "line3": null,
      "city": "AMARILLO",
      "state": "TX",
      "country": "US",
      "postalCode": "79108",
      "latitude": 35.236712,
      "longitude": -101.7297703,
      "timeZone": "America/Chicago",
      "vendorCodes": null
    },
    "totalDistance": { "value": 864.815126026311, "unit": "miles" },
    "payout": { "value": 2244.419868899206, "unit": "USD" },
    "radius": 61
  },
  {
    "id": "341c1b2a-cf9e-4830-8af2-0999f055dada",
    "deadhead": "225.73",
    "trailerStatus": "Provided",
    "driverType": "Solo",
    "totalDuration": 833400000,
    "firstPickupTime": "2022-06-13T15:00:00Z",
    "lastDeliveryTime": "2022-06-23T06:30:00Z",
    "equipmentType": "53' Reefer",
    "loadType": "LIVE",
    "unloadingType": null,
    "stops": 2,
    "workType": "Block",
    "origin": {
      "label": "USNYC-E425",
      "stopCode": "USNYC-E425",
      "line1": "5080 Mclester St",
      "line2": null,
      "line3": null,
      "city": "ELIZABETH",
      "state": "NJ",
      "country": "US",
      "postalCode": "07207",
      "latitude": 40.669468,
      "longitude": -74.1590186,
      "timeZone": "America/New_York",
      "vendorCodes": null
    },
    "destination": {
      "label": "ABE8",
      "stopCode": "ABE8",
      "line1": "309 Cedar Ln",
      "line2": null,
      "line3": null,
      "city": "FLORENCE",
      "state": "NJ",
      "country": "US",
      "postalCode": "08518",
      "latitude": 40.109419,
      "longitude": -74.80009,
      "timeZone": "America/New_York",
      "vendorCodes": null
    },
    "totalDistance": { "value": 58.21005347842088, "unit": "miles" },
    "payout": { "value": 621.1435847392473, "unit": "USD" },
    "radius": 95
  },
  {
    "id": "a3f4abc4-9de3-4407-98bc-16dbb3eab6a9",
    "deadhead": null,
    "trailerStatus": "Provided",
    "driverType": "Solo",
    "totalDuration": 829800000,
    "firstPickupTime": "2022-06-13T15:00:00Z",
    "lastDeliveryTime": "2022-06-23T05:30:00Z",
    "equipmentType": "20' Container",
    "loadType": "LIVE",
    "unloadingType": null,
    "stops": 2,
    "workType": "Round-trips",
    "origin": {
      "label": "USNYC-E425",
      "stopCode": "USNYC-E425",
      "line1": "5080 Mclester St",
      "line2": null,
      "line3": null,
      "city": "ELIZABETH",
      "state": "NJ",
      "country": "US",
      "postalCode": "07207",
      "latitude": 40.669468,
      "longitude": -74.1590186,
      "timeZone": "America/New_York",
      "vendorCodes": null
    },
    "destination": {
      "label": "ABE8",
      "stopCode": "ABE8",
      "line1": "309 Cedar Ln",
      "line2": null,
      "line3": null,
      "city": "FLORENCE",
      "state": "NJ",
      "country": "US",
      "postalCode": "08518",
      "latitude": 40.109419,
      "longitude": -74.80009,
      "timeZone": "America/New_York",
      "vendorCodes": null
    },
    "totalDistance": { "value": 58.21005347842088, "unit": "miles" },
    "payout": { "value": 621.1435847392473, "unit": "USD" },
    "radius": 75
  },
  {
    "id": "ae209e97-7aed-4bc5-9944-7fbfcad7d479",
    "deadhead": null,
    "trailerStatus": "Provided",
    "driverType": "Solo",
    "totalDuration": 761400000,
    "firstPickupTime": "2022-06-13T15:00:00Z",
    "lastDeliveryTime": "2022-06-22T10:30:00Z",
    "equipmentType": "28' Trailer",
    "loadType": "PRELOADED",
    "unloadingType": null,
    "stops": 2,
    "workType": "Block",
    "origin": {
      "label": "USNYC-E425",
      "stopCode": "USNYC-E425",
      "line1": "5080 Mclester St",
      "line2": null,
      "line3": null,
      "city": "ELIZABETH",
      "state": "NJ",
      "country": "US",
      "postalCode": "07207",
      "latitude": 40.669468,
      "longitude": -74.1590186,
      "timeZone": "America/New_York",
      "vendorCodes": null
    },
    "destination": {
      "label": "ABE8",
      "stopCode": "ABE8",
      "line1": "309 Cedar Ln",
      "line2": null,
      "line3": null,
      "city": "FLORENCE",
      "state": "NJ",
      "country": "US",
      "postalCode": "08518",
      "latitude": 40.109419,
      "longitude": -74.80009,
      "timeZone": "America/New_York",
      "vendorCodes": null
    },
    "totalDistance": { "value": 58.21005347842088, "unit": "miles" },
    "payout": { "value": 621.1435847392473, "unit": "USD" },
    "radius": 15
  },
  {
    "id": "58f95ca4-de95-4c71-a0be-8dce39fb85e9",
    "deadhead": null,
    "trailerStatus": "Provided",
    "driverType": "Team",
    "totalDuration": 66960000,
    "firstPickupTime": "2022-06-13T15:00:00Z",
    "lastDeliveryTime": "2022-06-14T09:36:00Z",
    "equipmentType": "40' Container",
    "loadType": null,
    "unloadingType": "DROP",
    "stops": 2,
    "workType": "One-way",
    "origin": {
      "label": "LAS2",
      "stopCode": "LAS2",
      "line1": "3837 Bay Lake trail suite 111",
      "line2": null,
      "line3": null,
      "city": "NORTH LAS VEGAS",
      "state": "NV",
      "country": "US",
      "postalCode": "89030",
      "latitude": 36.229299,
      "longitude": -115.105309,
      "timeZone": "America/Los_Angeles",
      "vendorCodes": null
    },
    "destination": {
      "label": "AMA1",
      "stopCode": "AMA1",
      "line1": "8590 NE 24th Ave",
      "line2": null,
      "line3": null,
      "city": "AMARILLO",
      "state": "TX",
      "country": "US",
      "postalCode": "79108",
      "latitude": 35.236712,
      "longitude": -101.7297703,
      "timeZone": "America/Chicago",
      "vendorCodes": null
    },
    "totalDistance": { "value": 864.815126026311, "unit": "miles" },
    "payout": { "value": 2320.411162949207, "unit": "USD" },
    "radius": 20
  },
  {
    "id": "609dd811-efc9-4921-837a-eae6435cb4a2",
    "deadhead": null,
    "trailerStatus": "Required",
    "driverType": "Solo",
    "totalDuration": 57660000,
    "firstPickupTime": "2022-06-13T15:00:00Z",
    "lastDeliveryTime": "2022-06-14T07:01:00Z",
    "equipmentType": "45' HC Container",
    "loadType": "PRELOADED",
    "unloadingType": null,
    "stops": 2,
    "workType": "Round-trips",
    "origin": {
      "label": "LAS2",
      "stopCode": "LAS2",
      "line1": "3837 Bay Lake trail suite 111",
      "line2": null,
      "line3": null,
      "city": "NORTH LAS VEGAS",
      "state": "NV",
      "country": "US",
      "postalCode": "89030",
      "latitude": 36.229299,
      "longitude": -115.105309,
      "timeZone": "America/Los_Angeles",
      "vendorCodes": null
    },
    "destination": {
      "label": "AMA1",
      "stopCode": "AMA1",
      "line1": "8590 NE 24th Ave",
      "line2": null,
      "line3": null,
      "city": "AMARILLO",
      "state": "TX",
      "country": "US",
      "postalCode": "79108",
      "latitude": 35.236712,
      "longitude": -101.7297703,
      "timeZone": "America/Chicago",
      "vendorCodes": null
    },
    "totalDistance": { "value": 864.815126026311, "unit": "miles" },
    "payout": { "value": 2320.411162949207, "unit": "USD" },
    "radius": 81
  },
  {
    "id": "26bd7ec8-1ae1-4712-870f-5bbd74811888",
    "deadhead": "10.31",
    "trailerStatus": "Required",
    "driverType": "Solo",
    "totalDuration": 847800000,
    "firstPickupTime": "2022-06-13T15:00:00Z",
    "lastDeliveryTime": "2022-06-23T10:30:00Z",
    "equipmentType": "20' Container",
    "loadType": null,
    "unloadingType": "DROP",
    "stops": 2,
    "workType": "Block",
    "origin": {
      "label": "USNYC-E425",
      "stopCode": "USNYC-E425",
      "line1": "5080 Mclester St",
      "line2": null,
      "line3": null,
      "city": "ELIZABETH",
      "state": "NJ",
      "country": "US",
      "postalCode": "07207",
      "latitude": 40.669468,
      "longitude": -74.1590186,
      "timeZone": "America/New_York",
      "vendorCodes": null
    },
    "destination": {
      "label": "ABE8",
      "stopCode": "ABE8",
      "line1": "309 Cedar Ln",
      "line2": null,
      "line3": null,
      "city": "FLORENCE",
      "state": "NJ",
      "country": "US",
      "postalCode": "08518",
      "latitude": 40.109419,
      "longitude": -74.80009,
      "timeZone": "America/New_York",
      "vendorCodes": null
    },
    "totalDistance": { "value": 58.21005347842088, "unit": "miles" },
    "payout": { "value": 621.1435847392473, "unit": "USD" },
    "radius": 41
  },
  {
    "id": "e9bb0279-e10b-433f-8688-0daa383ffd24",
    "deadhead": null,
    "trailerStatus": "Provided",
    "driverType": "Solo",
    "totalDuration": 86400000,
    "firstPickupTime": "2022-06-13T15:00:00Z",
    "lastDeliveryTime": "2022-06-14T15:00:00Z",
    "equipmentType": "40' HC Container",
    "loadType": null,
    "unloadingType": "LIVE",
    "stops": 2,
    "workType": "Round-trips",
    "origin": {
      "label": "BNSF-LOSANGELES-MC",
      "stopCode": "BNSF-LOSANGELES-MC",
      "line1": "4000 E SHELIA STREET",
      "line2": null,
      "line3": null,
      "city": "LOS ANGELES",
      "state": "CA",
      "country": "US",
      "postalCode": "90023",
      "latitude": 34.0217049,
      "longitude": -118.2004532,
      "timeZone": "America/Los_Angeles",
      "vendorCodes": null
    },
    "destination": {
      "label": "SCK4",
      "stopCode": "SCK4",
      "line1": "6001 S AUSTIN RD",
      "line2": null,
      "line3": null,
      "city": "STOCKTON",
      "state": "California",
      "country": "US",
      "postalCode": "95215",
      "latitude": 37.908911,
      "longitude": -121.188709,
      "timeZone": "America/Los_Angeles",
      "vendorCodes": null
    },
    "totalDistance": { "value": 345.0672884199051, "unit": "miles" },
    "payout": { "value": 1495.451575146531, "unit": "USD" },
    "radius": 74
  },
  {
    "id": "5b064644-592c-4e0b-8bd5-9ce2648e7609",
    "deadhead": null,
    "trailerStatus": "Required",
    "driverType": "Solo",
    "totalDuration": 102660000,
    "firstPickupTime": "2022-06-13T15:00:00Z",
    "lastDeliveryTime": "2022-06-14T19:31:00Z",
    "equipmentType": "53' Container",
    "loadType": null,
    "unloadingType": "DROP",
    "stops": 2,
    "workType": "Round-trips",
    "origin": {
      "label": "LAS1",
      "stopCode": "LAS1",
      "line1": "12300 Bermuda Road",
      "line2": null,
      "line3": null,
      "city": "HENDERSON",
      "state": "Nevada",
      "country": "US",
      "postalCode": "89044",
      "latitude": 35.966571,
      "longitude": -115.152358,
      "timeZone": "America/Los_Angeles",
      "vendorCodes": null
    },
    "destination": {
      "label": "LIT1",
      "stopCode": "LIT1",
      "line1": "7001 Zeuber Road",
      "line2": null,
      "line3": null,
      "city": "LITTLE ROCK",
      "state": "Arkansas",
      "country": "US",
      "postalCode": "72206",
      "latitude": 34.694478,
      "longitude": -92.204747,
      "timeZone": "America/Chicago",
      "vendorCodes": null
    },
    "totalDistance": { "value": 1455.941727799883, "unit": "miles" },
    "payout": { "value": 3996.442101013915, "unit": "USD" },
    "radius": 9
  },
  {
    "id": "3ea098c0-0616-4873-8979-2ef12568daf9",
    "deadhead": null,
    "trailerStatus": "Required",
    "driverType": "Solo",
    "totalDuration": 613800000,
    "firstPickupTime": "2022-06-13T15:00:00Z",
    "lastDeliveryTime": "2022-06-20T17:30:00Z",
    "equipmentType": "28' Trailer",
    "loadType": "LIVE",
    "unloadingType": null,
    "stops": 2,
    "workType": "Block",
    "origin": {
      "label": "USNYC-E425",
      "stopCode": "USNYC-E425",
      "line1": "5080 Mclester St",
      "line2": null,
      "line3": null,
      "city": "ELIZABETH",
      "state": "NJ",
      "country": "US",
      "postalCode": "07207",
      "latitude": 40.669468,
      "longitude": -74.1590186,
      "timeZone": "America/New_York",
      "vendorCodes": null
    },
    "destination": {
      "label": "ABE8",
      "stopCode": "ABE8",
      "line1": "309 Cedar Ln",
      "line2": null,
      "line3": null,
      "city": "FLORENCE",
      "state": "NJ",
      "country": "US",
      "postalCode": "08518",
      "latitude": 40.109419,
      "longitude": -74.80009,
      "timeZone": "America/New_York",
      "vendorCodes": null
    },
    "totalDistance": { "value": 58.21005347842088, "unit": "miles" },
    "payout": { "value": 619.9793836696789, "unit": "USD" },
    "radius": 41
  },
  {
    "id": "d20bddab-2972-4f41-bc55-2276c72c7028",
    "deadhead": null,
    "trailerStatus": "Required",
    "driverType": "Solo",
    "totalDuration": 837000000,
    "firstPickupTime": "2022-06-13T15:00:00Z",
    "lastDeliveryTime": "2022-06-23T07:30:00Z",
    "equipmentType": "26' Reefer",
    "loadType": "PRELOADED",
    "unloadingType": null,
    "stops": 2,
    "workType": "Block",
    "origin": {
      "label": "USNYC-E425",
      "stopCode": "USNYC-E425",
      "line1": "5080 Mclester St",
      "line2": null,
      "line3": null,
      "city": "ELIZABETH",
      "state": "NJ",
      "country": "US",
      "postalCode": "07207",
      "latitude": 40.669468,
      "longitude": -74.1590186,
      "timeZone": "America/New_York",
      "vendorCodes": null
    },
    "destination": {
      "label": "ABE8",
      "stopCode": "ABE8",
      "line1": "309 Cedar Ln",
      "line2": null,
      "line3": null,
      "city": "FLORENCE",
      "state": "NJ",
      "country": "US",
      "postalCode": "08518",
      "latitude": 40.109419,
      "longitude": -74.80009,
      "timeZone": "America/New_York",
      "vendorCodes": null
    },
    "totalDistance": { "value": 58.21005347842088, "unit": "miles" },
    "payout": { "value": 621.1435847392473, "unit": "USD" },
    "radius": 97
  },
  {
    "id": "5d141f7d-2216-4d0f-beb6-a3576c4f411c",
    "deadhead": "42.64",
    "trailerStatus": "Required",
    "driverType": "Solo",
    "totalDuration": 624600000,
    "firstPickupTime": "2022-06-13T15:00:00Z",
    "lastDeliveryTime": "2022-06-20T20:30:00Z",
    "equipmentType": "53' Container",
    "loadType": null,
    "unloadingType": "LIVE",
    "stops": 2,
    "workType": "One-way",
    "origin": {
      "label": "USNYC-E425",
      "stopCode": "USNYC-E425",
      "line1": "5080 Mclester St",
      "line2": null,
      "line3": null,
      "city": "ELIZABETH",
      "state": "NJ",
      "country": "US",
      "postalCode": "07207",
      "latitude": 40.669468,
      "longitude": -74.1590186,
      "timeZone": "America/New_York",
      "vendorCodes": null
    },
    "destination": {
      "label": "ABE8",
      "stopCode": "ABE8",
      "line1": "309 Cedar Ln",
      "line2": null,
      "line3": null,
      "city": "FLORENCE",
      "state": "NJ",
      "country": "US",
      "postalCode": "08518",
      "latitude": 40.109419,
      "longitude": -74.80009,
      "timeZone": "America/New_York",
      "vendorCodes": null
    },
    "totalDistance": { "value": 58.21005347842088, "unit": "miles" },
    "payout": { "value": 621.1435847392473, "unit": "USD" },
    "radius": 78
  },
  {
    "id": "56ab1db7-04a3-4399-8d92-01a90c47c1d0",
    "deadhead": null,
    "trailerStatus": "Provided",
    "driverType": "Solo",
    "totalDuration": 1089000000,
    "firstPickupTime": "2022-06-13T15:00:00Z",
    "lastDeliveryTime": "2022-06-26T05:30:00Z",
    "equipmentType": "53' Trailer",
    "loadType": null,
    "unloadingType": "DROP",
    "stops": 2,
    "workType": "One-way",
    "origin": {
      "label": "USNYC-E425",
      "stopCode": "USNYC-E425",
      "line1": "5080 Mclester St",
      "line2": null,
      "line3": null,
      "city": "ELIZABETH",
      "state": "NJ",
      "country": "US",
      "postalCode": "07207",
      "latitude": 40.669468,
      "longitude": -74.1590186,
      "timeZone": "America/New_York",
      "vendorCodes": null
    },
    "destination": {
      "label": "ABE8",
      "stopCode": "ABE8",
      "line1": "309 Cedar Ln",
      "line2": null,
      "line3": null,
      "city": "FLORENCE",
      "state": "NJ",
      "country": "US",
      "postalCode": "08518",
      "latitude": 40.109419,
      "longitude": -74.80009,
      "timeZone": "America/New_York",
      "vendorCodes": null
    },
    "totalDistance": { "value": 58.21005347842088, "unit": "miles" },
    "payout": { "value": 621.1435847392473, "unit": "USD" },
    "radius": 84
  },
  {
    "id": "0bf3dad1-d48a-42f8-b740-29ba2a804316",
    "deadhead": null,
    "trailerStatus": "Required",
    "driverType": "Solo",
    "totalDuration": 39900000,
    "firstPickupTime": "2022-06-13T15:02:00Z",
    "lastDeliveryTime": "2022-06-14T02:07:00Z",
    "equipmentType": "26' Reefer",
    "loadType": null,
    "unloadingType": "DROP",
    "stops": 2,
    "workType": "Round-trips",
    "origin": {
      "label": "XDA1",
      "stopCode": "XDA1",
      "line1": "4800 Henrietta Creek Road",
      "line2": null,
      "line3": null,
      "city": "FORT WORTH",
      "state": "TX",
      "country": "US",
      "postalCode": "76177",
      "latitude": 32.992237,
      "longitude": -97.255236,
      "timeZone": "America/Chicago",
      "vendorCodes": null
    },
    "destination": {
      "label": "XDA1",
      "stopCode": "XDA1",
      "line1": "4800 Henrietta Creek Road",
      "line2": null,
      "line3": null,
      "city": "FORT WORTH",
      "state": "TX",
      "country": "US",
      "postalCode": "76177",
      "latitude": 32.992237,
      "longitude": -97.255236,
      "timeZone": "America/Chicago",
      "vendorCodes": null
    },
    "totalDistance": { "value": 115.60113855689386, "unit": "miles" },
    "payout": { "value": 811.2478329865326, "unit": "USD" },
    "radius": 56
  },
  {
    "id": "67012f01-1e5c-471b-b77b-cc769275e625",
    "deadhead": "145.84",
    "trailerStatus": "Provided",
    "driverType": "Team",
    "totalDuration": 55860000,
    "firstPickupTime": "2022-06-13T15:14:00Z",
    "lastDeliveryTime": "2022-06-14T06:45:00Z",
    "equipmentType": "28' Trailer",
    "loadType": "LIVE",
    "unloadingType": null,
    "stops": 2,
    "workType": "One-way",
    "origin": {
      "label": "1142QJLN6_ITR_1",
      "stopCode": "1142QJLN6_ITR_1",
      "line1": "Winslow, AZ 86047, United States",
      "line2": null,
      "line3": null,
      "city": "WINSLOW",
      "state": "AZ",
      "country": "US",
      "postalCode": "86047",
      "latitude": 35.1877016,
      "longitude": -110.3647669,
      "timeZone": "America/Phoenix",
      "vendorCodes": null
    },
    "destination": {
      "label": "OAK5",
      "stopCode": "OAK5",
      "line1": "38811 Cherry St",
      "line2": null,
      "line3": null,
      "city": "NEWARK",
      "state": "CALIFORNIA",
      "country": "US",
      "postalCode": "94560-4939",
      "latitude": 37.520498,
      "longitude": -122.014768,
      "timeZone": "America/Los_Angeles",
      "vendorCodes": null
    },
    "totalDistance": { "value": 811.5735058187917, "unit": "miles" },
    "payout": { "value": 2657.569199317718, "unit": "USD" },
    "radius": 66
  },
  {
    "id": "a7c0d1ee-5f00-44e2-aecd-fd90bc4ada8c",
    "deadhead": null,
    "trailerStatus": "Required",
    "driverType": "Solo",
    "totalDuration": 54300000,
    "firstPickupTime": "2022-06-13T15:20:00Z",
    "lastDeliveryTime": "2022-06-14T06:25:00Z",
    "equipmentType": "45' HC Container",
    "loadType": "LIVE",
    "unloadingType": null,
    "stops": 2,
    "workType": "Block",
    "origin": {
      "label": "LAS1",
      "stopCode": "LAS1",
      "line1": "12300 Bermuda Road",
      "line2": null,
      "line3": null,
      "city": "HENDERSON",
      "state": "Nevada",
      "country": "US",
      "postalCode": "89044",
      "latitude": 35.966571,
      "longitude": -115.152358,
      "timeZone": "America/Los_Angeles",
      "vendorCodes": null
    },
    "destination": {
      "label": "LIT1",
      "stopCode": "LIT1",
      "line1": "7001 Zeuber Road",
      "line2": null,
      "line3": null,
      "city": "LITTLE ROCK",
      "state": "Arkansas",
      "country": "US",
      "postalCode": "72206",
      "latitude": 34.694478,
      "longitude": -92.204747,
      "timeZone": "America/Chicago",
      "vendorCodes": null
    },
    "totalDistance": { "value": 1455.941727799883, "unit": "miles" },
    "payout": { "value": 3996.442101013915, "unit": "USD" },
    "radius": 20
  },
  {
    "id": "6a04dace-6747-480b-a6a4-061033a5c7c5",
    "deadhead": null,
    "trailerStatus": "Provided",
    "driverType": "Team",
    "totalDuration": 140640000,
    "firstPickupTime": "2022-06-13T15:20:00Z",
    "lastDeliveryTime": "2022-06-15T06:24:00Z",
    "equipmentType": "26' Truck",
    "loadType": null,
    "unloadingType": "DROP",
    "stops": 2,
    "workType": "One-way",
    "origin": {
      "label": "LAS1",
      "stopCode": "LAS1",
      "line1": "12300 Bermuda Road",
      "line2": null,
      "line3": null,
      "city": "HENDERSON",
      "state": "Nevada",
      "country": "US",
      "postalCode": "89044",
      "latitude": 35.966571,
      "longitude": -115.152358,
      "timeZone": "America/Los_Angeles",
      "vendorCodes": null
    },
    "destination": {
      "label": "HGA6",
      "stopCode": "HGA6",
      "line1": "5115 Stonewall Tell Rd.",
      "line2": null,
      "line3": null,
      "city": "UNION CITY",
      "state": "Georgia",
      "country": "US",
      "postalCode": "30349-2423",
      "latitude": 33.616782,
      "longitude": -84.5632546,
      "timeZone": "America/New_York",
      "vendorCodes": null
    },
    "totalDistance": { "value": 1971.5784804534485, "unit": "miles" },
    "payout": { "value": 4526.763154511018, "unit": "USD" },
    "radius": 37
  },
  {
    "id": "7b644614-67ab-450b-9fb6-58053594f9fa",
    "deadhead": null,
    "trailerStatus": "Required",
    "driverType": "Solo",
    "totalDuration": 9780000,
    "firstPickupTime": "2022-06-13T15:20:00Z",
    "lastDeliveryTime": "2022-06-13T18:03:00Z",
    "equipmentType": "26' Reefer",
    "loadType": null,
    "unloadingType": "LIVE",
    "stops": 4,
    "workType": "Round-trips",
    "origin": {
      "label": "SAN5",
      "stopCode": "SAN5",
      "line1": "7144 OTAY MESA RD",
      "line2": null,
      "line3": null,
      "city": "SAN DIEGO",
      "state": "California",
      "country": "US",
      "postalCode": "92154-7719",
      "latitude": 32.567594,
      "longitude": -116.925476,
      "timeZone": "America/Los_Angeles",
      "vendorCodes": null
    },
    "destination": {
      "label": "PZ22884",
      "stopCode": "PZ22884",
      "line1": "9518 MISSION GORGE RD",
      "line2": null,
      "line3": null,
      "city": "SANTEE",
      "state": "CA",
      "country": "US",
      "postalCode": "92071",
      "latitude": 32.839434,
      "longitude": -116.990515,
      "timeZone": "America/Los_Angeles",
      "vendorCodes": null
    },
    "totalDistance": { "value": 57.30595725595093, "unit": "miles" },
    "payout": { "value": 329.518072390773, "unit": "USD" },
    "radius": 13
  },
  {
    "id": "f453dbce-0e7f-4a0d-8689-7ff59d9ebb1b",
    "deadhead": "112.57",
    "trailerStatus": "Required",
    "driverType": "Team",
    "totalDuration": 55860000,
    "firstPickupTime": "2022-06-13T15:30:00Z",
    "lastDeliveryTime": "2022-06-14T07:01:00Z",
    "equipmentType": "40' Container",
    "loadType": "PRELOADED",
    "unloadingType": null,
    "stops": 2,
    "workType": "Round-trips",
    "origin": {
      "label": "TUS2",
      "stopCode": "TUS2",
      "line1": "6701 S KOLB RD",
      "line2": null,
      "line3": null,
      "city": "TUCSON",
      "state": "Arizona",
      "country": "US",
      "postalCode": "85756-9287",
      "latitude": 32.129206,
      "longitude": -110.838835,
      "timeZone": "America/Phoenix",
      "vendorCodes": null
    },
    "destination": {
      "label": "SAT2",
      "stopCode": "SAT2",
      "line1": "1401 E McCarty Lane",
      "line2": null,
      "line3": null,
      "city": "SAN MARCOS",
      "state": "TX",
      "country": "US",
      "postalCode": "78666-8969",
      "latitude": 29.837177,
      "longitude": -97.964104,
      "timeZone": "America/Chicago",
      "vendorCodes": null
    },
    "totalDistance": { "value": 892.3586632484258, "unit": "miles" },
    "payout": { "value": 2048.87229933135, "unit": "USD" },
    "radius": 91
  },
  {
    "id": "535bb94e-392d-424d-934a-4aa70e112b31",
    "deadhead": null,
    "trailerStatus": "Provided",
    "driverType": "Team",
    "totalDuration": 41280000,
    "firstPickupTime": "2022-06-13T15:30:00Z",
    "lastDeliveryTime": "2022-06-14T02:58:00Z",
    "equipmentType": "40' Container",
    "loadType": "LIVE",
    "unloadingType": null,
    "stops": 2,
    "workType": "Block",
    "origin": {
      "label": "WTN1",
      "stopCode": "WTN1",
      "line1": "245 Thomas Rd",
      "line2": null,
      "line3": null,
      "city": "BRISTOL",
      "state": "Virginia",
      "country": "US",
      "postalCode": "24201",
      "latitude": 36.619766,
      "longitude": -82.12265,
      "timeZone": "America/New_York",
      "vendorCodes": null
    },
    "destination": {
      "label": "MTN1",
      "stopCode": "MTN1",
      "line1": "1025 BOXWOOD RD",
      "line2": null,
      "line3": null,
      "city": "WILMINGTON",
      "state": "Delaware",
      "country": "US",
      "postalCode": "19804-2052",
      "latitude": 39.7271706,
      "longitude": -75.6125826,
      "timeZone": "America/New_York",
      "vendorCodes": null
    },
    "totalDistance": { "value": 474.87671388738204, "unit": "miles" },
    "payout": { "value": 1717.210732267789, "unit": "USD" },
    "radius": 0
  },
  {
    "id": "6aa364c7-cd35-4077-a866-f976671a5975",
    "deadhead": null,
    "trailerStatus": "Required",
    "driverType": "Team",
    "totalDuration": 41280000,
    "firstPickupTime": "2022-06-13T15:30:00Z",
    "lastDeliveryTime": "2022-06-14T02:58:00Z",
    "equipmentType": "40' HC Container",
    "loadType": null,
    "unloadingType": "DROP",
    "stops": 2,
    "workType": "One-way",
    "origin": {
      "label": "WTN1",
      "stopCode": "WTN1",
      "line1": "245 Thomas Rd",
      "line2": null,
      "line3": null,
      "city": "BRISTOL",
      "state": "Virginia",
      "country": "US",
      "postalCode": "24201",
      "latitude": 36.619766,
      "longitude": -82.12265,
      "timeZone": "America/New_York",
      "vendorCodes": null
    },
    "destination": {
      "label": "MTN1",
      "stopCode": "MTN1",
      "line1": "1025 BOXWOOD RD",
      "line2": null,
      "line3": null,
      "city": "WILMINGTON",
      "state": "Delaware",
      "country": "US",
      "postalCode": "19804-2052",
      "latitude": 39.7271706,
      "longitude": -75.6125826,
      "timeZone": "America/New_York",
      "vendorCodes": null
    },
    "totalDistance": { "value": 474.87671388738204, "unit": "miles" },
    "payout": { "value": 1717.210732267789, "unit": "USD" },
    "radius": 97
  },
  {
    "id": "6f001772-b081-4e6e-9014-50c4398fed94",
    "deadhead": null,
    "trailerStatus": "Provided",
    "driverType": "Team",
    "totalDuration": 41280000,
    "firstPickupTime": "2022-06-13T15:30:00Z",
    "lastDeliveryTime": "2022-06-14T02:58:00Z",
    "equipmentType": "40' HC Container",
    "loadType": null,
    "unloadingType": "LIVE",
    "stops": 2,
    "workType": "Block",
    "origin": {
      "label": "WTN1",
      "stopCode": "WTN1",
      "line1": "245 Thomas Rd",
      "line2": null,
      "line3": null,
      "city": "BRISTOL",
      "state": "Virginia",
      "country": "US",
      "postalCode": "24201",
      "latitude": 36.619766,
      "longitude": -82.12265,
      "timeZone": "America/New_York",
      "vendorCodes": null
    },
    "destination": {
      "label": "MTN1",
      "stopCode": "MTN1",
      "line1": "1025 BOXWOOD RD",
      "line2": null,
      "line3": null,
      "city": "WILMINGTON",
      "state": "Delaware",
      "country": "US",
      "postalCode": "19804-2052",
      "latitude": 39.7271706,
      "longitude": -75.6125826,
      "timeZone": "America/New_York",
      "vendorCodes": null
    },
    "totalDistance": { "value": 474.87671388738204, "unit": "miles" },
    "payout": { "value": 1717.210732267789, "unit": "USD" },
    "radius": 59
  },
  {
    "id": "aaaf88e8-c814-4f9b-8158-837adea7b8df",
    "deadhead": null,
    "trailerStatus": "Provided",
    "driverType": "Solo",
    "totalDuration": 25380000,
    "firstPickupTime": "2022-06-13T15:39:00Z",
    "lastDeliveryTime": "2022-06-13T22:42:00Z",
    "equipmentType": "26' Reefer",
    "loadType": "PRELOADED",
    "unloadingType": null,
    "stops": 2,
    "workType": "Round-trips",
    "origin": {
      "label": "CVG9",
      "stopCode": "CVG9",
      "line1": "2305 Litton Ln",
      "line2": null,
      "line3": null,
      "city": "HEBRON",
      "state": "KENTUCKY",
      "country": "US",
      "postalCode": "41048",
      "latitude": 39.0760679,
      "longitude": -84.7205115,
      "timeZone": "America/New_York",
      "vendorCodes": null
    },
    "destination": {
      "label": "MEM6",
      "stopCode": "MEM6",
      "line1": "11505 Progress Way",
      "line2": null,
      "line3": null,
      "city": "OLIVE BRANCH",
      "state": "Mississippi",
      "country": "US",
      "postalCode": "38654",
      "latitude": 34.952589,
      "longitude": -89.782151,
      "timeZone": "America/Chicago",
      "vendorCodes": null
    },
    "totalDistance": { "value": 860.8346398610785, "unit": "miles" },
    "payout": { "value": 1489.244287098587, "unit": "USD" },
    "radius": 16
  },
  {
    "id": "a84dd983-da6d-4239-9fd0-d853dbf6465f",
    "deadhead": "285.42",
    "trailerStatus": "Required",
    "driverType": "Solo",
    "totalDuration": 196260000,
    "firstPickupTime": "2022-06-13T16:00:00Z",
    "lastDeliveryTime": "2022-06-15T22:31:00Z",
    "equipmentType": "20' Container",
    "loadType": "PRELOADED",
    "unloadingType": null,
    "stops": 2,
    "workType": "Round-trips",
    "origin": {
      "label": "LGB8",
      "stopCode": "LGB8",
      "line1": "1568 N Linden Ave",
      "line2": null,
      "line3": null,
      "city": "RIALTO",
      "state": "CALIFORNIA",
      "country": "US",
      "postalCode": "92376",
      "latitude": 34.12907,
      "longitude": -117.403641,
      "timeZone": "America/Los_Angeles",
      "vendorCodes": null
    },
    "destination": {
      "label": "HNE1",
      "stopCode": "HNE1",
      "line1": "2205 STATE ROUTE 27",
      "line2": null,
      "line3": null,
      "city": "EDISON",
      "state": "New Jersey",
      "country": "US",
      "postalCode": "08817-3313",
      "latitude": 40.532265,
      "longitude": -74.380557,
      "timeZone": "America/New_York",
      "vendorCodes": null
    },
    "totalDistance": { "value": 2720.4182991252956, "unit": "miles" },
    "payout": { "value": 6056.332961861466, "unit": "USD" },
    "radius": 93
  },
  {
    "id": "4cc79974-f8ec-40ed-b73f-6ff30dc02d16",
    "deadhead": "78.11",
    "trailerStatus": "Provided",
    "driverType": "Solo",
    "totalDuration": 52140000,
    "firstPickupTime": "2022-06-13T16:00:00Z",
    "lastDeliveryTime": "2022-06-14T06:29:00Z",
    "equipmentType": "45' HC Container",
    "loadType": null,
    "unloadingType": "LIVE",
    "stops": 3,
    "workType": "Block",
    "origin": {
      "label": "DCA2",
      "stopCode": "DCA2",
      "line1": "5250 Goodman Way",
      "line2": null,
      "line3": null,
      "city": "EASTVALE",
      "state": "California",
      "country": "US",
      "postalCode": "91752-5088",
      "latitude": 33.9939089,
      "longitude": -117.553902,
      "timeZone": "America/Los_Angeles",
      "vendorCodes": null
    },
    "destination": {
      "label": "IST1",
      "stopCode": "IST1",
      "line1": "455 Valley Dr",
      "line2": null,
      "line3": null,
      "city": "BRISBANE",
      "state": "CA",
      "country": "US",
      "postalCode": "94005",
      "latitude": 37.690267,
      "longitude": -122.417421,
      "timeZone": "America/Los_Angeles",
      "vendorCodes": null
    },
    "totalDistance": { "value": 428.9089079395471, "unit": "miles" },
    "payout": { "value": 3009.10262935587, "unit": "USD" },
    "radius": 33
  },
  {
    "id": "2138a942-dbbd-42ff-925c-3b637040f3b7",
    "deadhead": null,
    "trailerStatus": "Required",
    "driverType": "Solo",
    "totalDuration": 140460000,
    "firstPickupTime": "2022-06-13T16:30:00Z",
    "lastDeliveryTime": "2022-06-15T07:31:00Z",
    "equipmentType": "20' Container",
    "loadType": "PRELOADED",
    "unloadingType": null,
    "stops": 2,
    "workType": "One-way",
    "origin": {
      "label": "LAS1",
      "stopCode": "LAS1",
      "line1": "12300 Bermuda Road",
      "line2": null,
      "line3": null,
      "city": "HENDERSON",
      "state": "Nevada",
      "country": "US",
      "postalCode": "89044",
      "latitude": 35.966571,
      "longitude": -115.152358,
      "timeZone": "America/Los_Angeles",
      "vendorCodes": null
    },
    "destination": {
      "label": "AKC1",
      "stopCode": "AKC1",
      "line1": "2450 ROMIG RD",
      "line2": null,
      "line3": null,
      "city": "AKRON",
      "state": "Ohio",
      "country": "US",
      "postalCode": "44320-3827",
      "latitude": 41.0484905,
      "longitude": -81.5841957,
      "timeZone": "America/New_York",
      "vendorCodes": null
    },
    "totalDistance": { "value": 2120.546610820154, "unit": "miles" },
    "payout": { "value": 4803.501587358712, "unit": "USD" },
    "radius": 39
  },
  {
    "id": "e2b70cc8-30bf-48cd-b3e8-98bcdb785b5d",
    "deadhead": "159.25",
    "trailerStatus": "Provided",
    "driverType": "Solo",
    "totalDuration": 102660000,
    "firstPickupTime": "2022-06-13T16:30:00Z",
    "lastDeliveryTime": "2022-06-14T21:01:00Z",
    "equipmentType": "53' Reefer",
    "loadType": null,
    "unloadingType": "LIVE",
    "stops": 2,
    "workType": "One-way",
    "origin": {
      "label": "LAS1",
      "stopCode": "LAS1",
      "line1": "12300 Bermuda Road",
      "line2": null,
      "line3": null,
      "city": "HENDERSON",
      "state": "Nevada",
      "country": "US",
      "postalCode": "89044",
      "latitude": 35.966571,
      "longitude": -115.152358,
      "timeZone": "America/Los_Angeles",
      "vendorCodes": null
    },
    "destination": {
      "label": "LIT1",
      "stopCode": "LIT1",
      "line1": "7001 Zeuber Road",
      "line2": null,
      "line3": null,
      "city": "LITTLE ROCK",
      "state": "Arkansas",
      "country": "US",
      "postalCode": "72206",
      "latitude": 34.694478,
      "longitude": -92.204747,
      "timeZone": "America/Chicago",
      "vendorCodes": null
    },
    "totalDistance": { "value": 1455.941727799883, "unit": "miles" },
    "payout": { "value": 3947.624399283915, "unit": "USD" },
    "radius": 17
  },
  {
    "id": "7eaaeb4e-bb0a-4764-b686-8c17db069156",
    "deadhead": null,
    "trailerStatus": "Provided",
    "driverType": "Solo",
    "totalDuration": 102660000,
    "firstPickupTime": "2022-06-13T16:30:00Z",
    "lastDeliveryTime": "2022-06-14T21:01:00Z",
    "equipmentType": "40' Container",
    "loadType": "LIVE",
    "unloadingType": null,
    "stops": 2,
    "workType": "One-way",
    "origin": {
      "label": "LAS1",
      "stopCode": "LAS1",
      "line1": "12300 Bermuda Road",
      "line2": null,
      "line3": null,
      "city": "HENDERSON",
      "state": "Nevada",
      "country": "US",
      "postalCode": "89044",
      "latitude": 35.966571,
      "longitude": -115.152358,
      "timeZone": "America/Los_Angeles",
      "vendorCodes": null
    },
    "destination": {
      "label": "LIT1",
      "stopCode": "LIT1",
      "line1": "7001 Zeuber Road",
      "line2": null,
      "line3": null,
      "city": "LITTLE ROCK",
      "state": "Arkansas",
      "country": "US",
      "postalCode": "72206",
      "latitude": 34.694478,
      "longitude": -92.204747,
      "timeZone": "America/Chicago",
      "vendorCodes": null
    },
    "totalDistance": { "value": 1455.941727799883, "unit": "miles" },
    "payout": { "value": 3996.442101013915, "unit": "USD" },
    "radius": 96
  },
  {
    "id": "31332db3-cf8f-43c3-b77f-434a44a31b12",
    "deadhead": "143.29",
    "trailerStatus": "Required",
    "driverType": "Solo",
    "totalDuration": 102660000,
    "firstPickupTime": "2022-06-13T16:30:00Z",
    "lastDeliveryTime": "2022-06-14T21:01:00Z",
    "equipmentType": "53' Trailer",
    "loadType": null,
    "unloadingType": "LIVE",
    "stops": 2,
    "workType": "One-way",
    "origin": {
      "label": "LAS1",
      "stopCode": "LAS1",
      "line1": "12300 Bermuda Road",
      "line2": null,
      "line3": null,
      "city": "HENDERSON",
      "state": "Nevada",
      "country": "US",
      "postalCode": "89044",
      "latitude": 35.966571,
      "longitude": -115.152358,
      "timeZone": "America/Los_Angeles",
      "vendorCodes": null
    },
    "destination": {
      "label": "LIT1",
      "stopCode": "LIT1",
      "line1": "7001 Zeuber Road",
      "line2": null,
      "line3": null,
      "city": "LITTLE ROCK",
      "state": "Arkansas",
      "country": "US",
      "postalCode": "72206",
      "latitude": 34.694478,
      "longitude": -92.204747,
      "timeZone": "America/Chicago",
      "vendorCodes": null
    },
    "totalDistance": { "value": 1455.941727799883, "unit": "miles" },
    "payout": { "value": 3947.624399283915, "unit": "USD" },
    "radius": 71
  },
  {
    "id": "cfbccfb4-d408-4c53-9ca0-a94de0e405f3",
    "deadhead": "223.98",
    "trailerStatus": "Required",
    "driverType": "Solo",
    "totalDuration": 102660000,
    "firstPickupTime": "2022-06-13T16:30:00Z",
    "lastDeliveryTime": "2022-06-14T21:01:00Z",
    "equipmentType": "26' Truck",
    "loadType": null,
    "unloadingType": "DROP",
    "stops": 2,
    "workType": "Block",
    "origin": {
      "label": "LAS1",
      "stopCode": "LAS1",
      "line1": "12300 Bermuda Road",
      "line2": null,
      "line3": null,
      "city": "HENDERSON",
      "state": "Nevada",
      "country": "US",
      "postalCode": "89044",
      "latitude": 35.966571,
      "longitude": -115.152358,
      "timeZone": "America/Los_Angeles",
      "vendorCodes": null
    },
    "destination": {
      "label": "LIT1",
      "stopCode": "LIT1",
      "line1": "7001 Zeuber Road",
      "line2": null,
      "line3": null,
      "city": "LITTLE ROCK",
      "state": "Arkansas",
      "country": "US",
      "postalCode": "72206",
      "latitude": 34.694478,
      "longitude": -92.204747,
      "timeZone": "America/Chicago",
      "vendorCodes": null
    },
    "totalDistance": { "value": 1455.941727799883, "unit": "miles" },
    "payout": { "value": 2512.022895053915, "unit": "USD" },
    "radius": 1
  },
  {
    "id": "1e441647-6d3f-43e6-ba4e-be3e9676fabd",
    "deadhead": null,
    "trailerStatus": "Provided",
    "driverType": "Solo",
    "totalDuration": 36240000,
    "firstPickupTime": "2022-06-13T16:38:00Z",
    "lastDeliveryTime": "2022-06-14T02:42:00Z",
    "equipmentType": "45' Container",
    "loadType": "LIVE",
    "unloadingType": null,
    "stops": 2,
    "workType": "Block",
    "origin": {
      "label": "RNO4",
      "stopCode": "RNO4",
      "line1": "8000 N Virginia",
      "line2": null,
      "line3": null,
      "city": "RENO",
      "state": "NEVADA",
      "country": "US",
      "postalCode": "89506-7701",
      "latitude": 39.6053929,
      "longitude": -119.8495646,
      "timeZone": "America/Los_Angeles",
      "vendorCodes": null
    },
    "destination": {
      "label": "BOI2",
      "stopCode": "BOI2",
      "line1": "5295 E. Franklin Road",
      "line2": null,
      "line3": null,
      "city": "NAMPA",
      "state": "Idaho",
      "country": "US",
      "postalCode": "83687",
      "latitude": 43.6082922,
      "longitude": -116.5287839,
      "timeZone": "America/Boise",
      "vendorCodes": null
    },
    "totalDistance": { "value": 405.7634730301787, "unit": "miles" },
    "payout": { "value": 1577.64250843203, "unit": "USD" },
    "radius": 61
  },
  {
    "id": "38942306-ecbb-4777-91d3-7b93ae0cb4cd",
    "deadhead": "83.82",
    "trailerStatus": "Required",
    "driverType": "Solo",
    "totalDuration": 57660000,
    "firstPickupTime": "2022-06-13T17:00:00Z",
    "lastDeliveryTime": "2022-06-14T09:01:00Z",
    "equipmentType": "40' HC Container",
    "loadType": null,
    "unloadingType": "DROP",
    "stops": 2,
    "workType": "Round-trips",
    "origin": {
      "label": "LAS2",
      "stopCode": "LAS2",
      "line1": "3837 Bay Lake trail suite 111",
      "line2": null,
      "line3": null,
      "city": "NORTH LAS VEGAS",
      "state": "NV",
      "country": "US",
      "postalCode": "89030",
      "latitude": 36.229299,
      "longitude": -115.105309,
      "timeZone": "America/Los_Angeles",
      "vendorCodes": null
    },
    "destination": {
      "label": "AMA1",
      "stopCode": "AMA1",
      "line1": "8590 NE 24th Ave",
      "line2": null,
      "line3": null,
      "city": "AMARILLO",
      "state": "TX",
      "country": "US",
      "postalCode": "79108",
      "latitude": 35.236712,
      "longitude": -101.7297703,
      "timeZone": "America/Chicago",
      "vendorCodes": null
    },
    "totalDistance": { "value": 864.815126026311, "unit": "miles" },
    "payout": { "value": 2013.566152799207, "unit": "USD" },
    "radius": 29
  },
  {
    "id": "2bf3bf93-e101-45b2-849a-f218d2e85ac0",
    "deadhead": null,
    "trailerStatus": "Required",
    "driverType": "Solo",
    "totalDuration": 47880000,
    "firstPickupTime": "2022-06-13T17:00:00Z",
    "lastDeliveryTime": "2022-06-14T06:18:00Z",
    "equipmentType": "53' Reefer",
    "loadType": "PRELOADED",
    "unloadingType": null,
    "stops": 2,
    "workType": "One-way",
    "origin": {
      "label": "RIMG2",
      "stopCode": "RIMG2",
      "line1": "777 Freeport Parkway",
      "line2": null,
      "line3": null,
      "city": "COPPELL",
      "state": "TX",
      "country": "US",
      "postalCode": "75029",
      "latitude": 32.952148,
      "longitude": -97.012768,
      "timeZone": "America/Chicago",
      "vendorCodes": null
    },
    "destination": {
      "label": "FAR1",
      "stopCode": "FAR1",
      "line1": "3701 40TH AVE N",
      "line2": null,
      "line3": null,
      "city": "FARGO",
      "state": "North Dakota",
      "country": "US",
      "postalCode": "58102-7400",
      "latitude": 46.93498,
      "longitude": -96.841739,
      "timeZone": "America/Chicago",
      "vendorCodes": null
    },
    "totalDistance": { "value": 1101.5500410221493, "unit": "miles" },
    "payout": { "value": 2666.725096446169, "unit": "USD" },
    "radius": 85
  },
  {
    "id": "0f363647-4c61-4014-b9ab-fa7a51830608",
    "deadhead": null,
    "trailerStatus": "Required",
    "driverType": "Team",
    "totalDuration": 57540000,
    "firstPickupTime": "2022-06-13T17:01:00Z",
    "lastDeliveryTime": "2022-06-14T09:00:00Z",
    "equipmentType": "45' HC Container",
    "loadType": "LIVE",
    "unloadingType": null,
    "stops": 2,
    "workType": "Round-trips",
    "origin": {
      "label": "GYR3",
      "stopCode": "GYR3",
      "line1": "8181 W ROOSEVELT ST",
      "line2": null,
      "line3": null,
      "city": "PHOENIX",
      "state": "Arizona",
      "country": "US",
      "postalCode": "85043-2356",
      "latitude": 33.457706,
      "longitude": -112.233124,
      "timeZone": "America/Phoenix",
      "vendorCodes": null
    },
    "destination": {
      "label": "SMF1",
      "stopCode": "SMF1",
      "line1": "4900 W Elkhorn Blvd",
      "line2": null,
      "line3": null,
      "city": "SACRAMENTO",
      "state": "CALIFORNIA",
      "country": "US",
      "postalCode": "95835",
      "latitude": 38.682473,
      "longitude": -121.575555,
      "timeZone": "America/Los_Angeles",
      "vendorCodes": null
    },
    "totalDistance": { "value": 752.4071659059917, "unit": "miles" },
    "payout": { "value": 1536.497979881374, "unit": "USD" },
    "radius": 12
  },
  {
    "id": "45ee28f2-ff20-4ea8-af79-8145891fdeed",
    "deadhead": "68.18",
    "trailerStatus": "Required",
    "driverType": "Solo",
    "totalDuration": 135660000,
    "firstPickupTime": "2022-06-13T17:11:00Z",
    "lastDeliveryTime": "2022-06-15T06:52:00Z",
    "equipmentType": "53' Trailer",
    "loadType": "LIVE",
    "unloadingType": null,
    "stops": 2,
    "workType": "Block",
    "origin": {
      "label": "LGB8",
      "stopCode": "LGB8",
      "line1": "1568 N Linden Ave",
      "line2": null,
      "line3": null,
      "city": "RIALTO",
      "state": "CALIFORNIA",
      "country": "US",
      "postalCode": "92376",
      "latitude": 34.12907,
      "longitude": -117.403641,
      "timeZone": "America/Los_Angeles",
      "vendorCodes": null
    },
    "destination": {
      "label": "DSM5",
      "stopCode": "DSM5",
      "line1": "500 32nd Street SW",
      "line2": null,
      "line3": null,
      "city": "BONDURANT",
      "state": "Iowa",
      "country": "US",
      "postalCode": "50035",
      "latitude": 41.6749881,
      "longitude": -93.4696456,
      "timeZone": "America/Chicago",
      "vendorCodes": null
    },
    "totalDistance": { "value": 1654.6462530889914, "unit": "miles" },
    "payout": { "value": 4572.945334954964, "unit": "USD" },
    "radius": 18
  },
  {
    "id": "88f9669a-9e9c-449e-ae00-748d5c8d0958",
    "deadhead": null,
    "trailerStatus": "Provided",
    "driverType": "Solo",
    "totalDuration": 21120000,
    "firstPickupTime": "2022-06-13T17:15:00Z",
    "lastDeliveryTime": "2022-06-13T23:07:00Z",
    "equipmentType": "53' Trailer",
    "loadType": "LIVE",
    "unloadingType": null,
    "stops": 2,
    "workType": "Round-trips",
    "origin": {
      "label": "OAK5",
      "stopCode": "OAK5",
      "line1": "38811 Cherry St",
      "line2": null,
      "line3": null,
      "city": "NEWARK",
      "state": "CALIFORNIA",
      "country": "US",
      "postalCode": "94560-4939",
      "latitude": 37.520498,
      "longitude": -122.014768,
      "timeZone": "America/Los_Angeles",
      "vendorCodes": null
    },
    "destination": {
      "label": "OAK5",
      "stopCode": "OAK5",
      "line1": "38811 Cherry St",
      "line2": null,
      "line3": null,
      "city": "NEWARK",
      "state": "CALIFORNIA",
      "country": "US",
      "postalCode": "94560-4939",
      "latitude": 37.520498,
      "longitude": -122.014768,
      "timeZone": "America/Los_Angeles",
      "vendorCodes": null
    },
    "totalDistance": { "value": 155.9666533710222, "unit": "miles" },
    "payout": { "value": 478.8838880808462, "unit": "USD" },
    "radius": 67
  },
  {
    "id": "1a033b97-a972-4f54-bfe5-b3b371640c80",
    "deadhead": "91.29",
    "trailerStatus": "Provided",
    "driverType": "Team",
    "totalDuration": 48228000,
    "firstPickupTime": "2022-06-13T17:45:00Z",
    "lastDeliveryTime": "2022-06-14T07:08:48Z",
    "equipmentType": "28' Trailer",
    "loadType": null,
    "unloadingType": "LIVE",
    "stops": 2,
    "workType": "Round-trips",
    "origin": {
      "label": "TUS2",
      "stopCode": "TUS2",
      "line1": "6701 S KOLB RD",
      "line2": null,
      "line3": null,
      "city": "TUCSON",
      "state": "Arizona",
      "country": "US",
      "postalCode": "85756-9287",
      "latitude": 32.129206,
      "longitude": -110.838835,
      "timeZone": "America/Phoenix",
      "vendorCodes": null
    },
    "destination": {
      "label": "LBB5",
      "stopCode": "LBB5",
      "line1": "1110 E HUNTER ST",
      "line2": null,
      "line3": null,
      "city": "LUBBOCK",
      "state": "Texas",
      "country": "US",
      "postalCode": "79403-1806",
      "latitude": 33.6319983,
      "longitude": -101.8235934,
      "timeZone": "America/Chicago",
      "vendorCodes": null
    },
    "totalDistance": { "value": 629.8653258160817, "unit": "miles" },
    "payout": { "value": 1672.00207494574, "unit": "USD" },
    "radius": 62
  },
  {
    "id": "4409a095-beb6-4594-90e4-681f6c27651c",
    "deadhead": null,
    "trailerStatus": "Required",
    "driverType": "Team",
    "totalDuration": 36960000,
    "firstPickupTime": "2022-06-13T17:45:00Z",
    "lastDeliveryTime": "2022-06-14T04:01:00Z",
    "equipmentType": "20' Container",
    "loadType": "PRELOADED",
    "unloadingType": null,
    "stops": 2,
    "workType": "One-way",
    "origin": {
      "label": "ICT2",
      "stopCode": "ICT2",
      "line1": "7130 N Broadway AVE",
      "line2": null,
      "line3": null,
      "city": "PARK CITY",
      "state": "Kansas",
      "country": "US",
      "postalCode": "67219-1410",
      "latitude": 37.7698758,
      "longitude": -97.3186763,
      "timeZone": "America/Chicago",
      "vendorCodes": null
    },
    "destination": {
      "label": "BDU5",
      "stopCode": "BDU5",
      "line1": "8350 Quintero St",
      "line2": null,
      "line3": null,
      "city": "COMMERCE CITY",
      "state": "Colorado",
      "country": "US",
      "postalCode": "80022",
      "latitude": 39.8472644,
      "longitude": -104.785135,
      "timeZone": "America/Denver",
      "vendorCodes": null
    },
    "totalDistance": { "value": 507.8914199060882, "unit": "miles" },
    "payout": { "value": 2074.959401801444, "unit": "USD" },
    "radius": 91
  },
  {
    "id": "88ce751f-e763-47c9-a129-b1a6b66bf6bf",
    "deadhead": "165.30",
    "trailerStatus": "Provided",
    "driverType": "Solo",
    "totalDuration": 11340000,
    "firstPickupTime": "2022-06-13T17:50:00Z",
    "lastDeliveryTime": "2022-06-13T20:59:00Z",
    "equipmentType": "20' Container",
    "loadType": null,
    "unloadingType": "DROP",
    "stops": 3,
    "workType": "Block",
    "origin": {
      "label": "PIT5",
      "stopCode": "PIT5",
      "line1": "2250 Roswell Drive",
      "line2": null,
      "line3": null,
      "city": "PITTSBURGH",
      "state": "PENNSYLVANIA",
      "country": "US",
      "postalCode": "15205-1800",
      "latitude": 40.4438215,
      "longitude": -80.0824356,
      "timeZone": "America/New_York",
      "vendorCodes": null
    },
    "destination": {
      "label": "PX19093",
      "stopCode": "PX19093",
      "line1": "111 FRANKLIN ST RM 105",
      "line2": null,
      "line3": null,
      "city": "JOHNSTOWN",
      "state": "PA",
      "country": "US",
      "postalCode": "15901",
      "latitude": 40.325851,
      "longitude": -78.916118,
      "timeZone": "America/New_York",
      "vendorCodes": null
    },
    "totalDistance": { "value": 87.85132528214181, "unit": "miles" },
    "payout": { "value": 253.318537405178, "unit": "USD" },
    "radius": 59
  },
  {
    "id": "a3202980-9151-4d77-a383-2a992a4e0e15",
    "deadhead": null,
    "trailerStatus": "Provided",
    "driverType": "Team",
    "totalDuration": 45660000,
    "firstPickupTime": "2022-06-13T18:00:00Z",
    "lastDeliveryTime": "2022-06-14T06:41:00Z",
    "equipmentType": "53' Container",
    "loadType": "LIVE",
    "unloadingType": null,
    "stops": 2,
    "workType": "Round-trips",
    "origin": {
      "label": "LIT1",
      "stopCode": "LIT1",
      "line1": "7001 Zeuber Road",
      "line2": null,
      "line3": null,
      "city": "LITTLE ROCK",
      "state": "Arkansas",
      "country": "US",
      "postalCode": "72206",
      "latitude": 34.694478,
      "longitude": -92.204747,
      "timeZone": "America/Chicago",
      "vendorCodes": null
    },
    "destination": {
      "label": "DSM5",
      "stopCode": "DSM5",
      "line1": "500 32nd Street SW",
      "line2": null,
      "line3": null,
      "city": "BONDURANT",
      "state": "Iowa",
      "country": "US",
      "postalCode": "50035",
      "latitude": 41.6749881,
      "longitude": -93.4696456,
      "timeZone": "America/Chicago",
      "vendorCodes": null
    },
    "totalDistance": { "value": 625.866196903249, "unit": "miles" },
    "payout": { "value": 1558.882141899372, "unit": "USD" },
    "radius": 56
  },
  {
    "id": "02e117eb-c226-4409-be45-c5a5638ee4c0",
    "deadhead": null,
    "trailerStatus": "Provided",
    "driverType": "Solo",
    "totalDuration": 36060000,
    "firstPickupTime": "2022-06-13T18:00:00Z",
    "lastDeliveryTime": "2022-06-14T04:01:00Z",
    "equipmentType": "26' Reefer",
    "loadType": "PRELOADED",
    "unloadingType": null,
    "stops": 2,
    "workType": "Round-trips",
    "origin": {
      "label": "VGT1",
      "stopCode": "VGT1",
      "line1": "5802 E TROPICAL PKWY",
      "line2": null,
      "line3": null,
      "city": "LAS VEGAS",
      "state": "NEVADA",
      "country": "US",
      "postalCode": "89115-1991",
      "latitude": 36.2709859,
      "longitude": -115.0447526,
      "timeZone": "America/Los_Angeles",
      "vendorCodes": null
    },
    "destination": {
      "label": "FAT1",
      "stopCode": "FAT1",
      "line1": "3575 S Orange Ave",
      "line2": null,
      "line3": null,
      "city": "FRESNO",
      "state": "CALIFORNIA",
      "country": "US",
      "postalCode": "93725",
      "latitude": 36.683512,
      "longitude": -119.764061,
      "timeZone": "America/Los_Angeles",
      "vendorCodes": null
    },
    "totalDistance": { "value": 403.09901151396934, "unit": "miles" },
    "payout": { "value": 917.4613943851975, "unit": "USD" },
    "radius": 41
  },
  {
    "id": "6e7be320-bd93-4536-9910-49ae6d1157bf",
    "deadhead": null,
    "trailerStatus": "Provided",
    "driverType": "Solo",
    "totalDuration": 36060000,
    "firstPickupTime": "2022-06-13T18:00:00Z",
    "lastDeliveryTime": "2022-06-14T04:01:00Z",
    "equipmentType": "53' Trailer",
    "loadType": null,
    "unloadingType": "DROP",
    "stops": 2,
    "workType": "Block",
    "origin": {
      "label": "VGT1",
      "stopCode": "VGT1",
      "line1": "5802 E TROPICAL PKWY",
      "line2": null,
      "line3": null,
      "city": "LAS VEGAS",
      "state": "NEVADA",
      "country": "US",
      "postalCode": "89115-1991",
      "latitude": 36.2709635,
      "longitude": -115.0448541,
      "timeZone": "America/Los_Angeles",
      "vendorCodes": null
    },
    "destination": {
      "label": "FAT1",
      "stopCode": "FAT1",
      "line1": "3575 S Orange Ave",
      "line2": null,
      "line3": null,
      "city": "FRESNO",
      "state": "CALIFORNIA",
      "country": "US",
      "postalCode": "93725",
      "latitude": 36.683512,
      "longitude": -119.764061,
      "timeZone": "America/Los_Angeles",
      "vendorCodes": null
    },
    "totalDistance": { "value": 403.09901151396934, "unit": "miles" },
    "payout": { "value": 917.4613943851975, "unit": "USD" },
    "radius": 38
  },
  {
    "id": "d07d0c56-4b67-49eb-bd7e-70e09085844e",
    "deadhead": null,
    "trailerStatus": "Provided",
    "driverType": "Solo",
    "totalDuration": 36000000,
    "firstPickupTime": "2022-06-13T18:00:00Z",
    "lastDeliveryTime": "2022-06-14T04:00:00Z",
    "equipmentType": "26' Reefer",
    "loadType": "PRELOADED",
    "unloadingType": null,
    "stops": 2,
    "workType": "One-way",
    "origin": {
      "label": "CSXT-CENTRAL FLORIDA ILC",
      "stopCode": "CSXT-CENTRAL FLORIDA ILC",
      "line1": "3935 Intermodal Drive",
      "line2": null,
      "line3": null,
      "city": "WINTER HAVEN",
      "state": "FL",
      "country": "US",
      "postalCode": "33884",
      "latitude": 27.938666,
      "longitude": -81.694892,
      "timeZone": "America/New_York",
      "vendorCodes": null
    },
    "destination": {
      "label": "TPA4",
      "stopCode": "TPA4",
      "line1": "8727 HARNEY RD",
      "line2": null,
      "line3": null,
      "city": "TEMPLE TERRACE",
      "state": "Florida",
      "country": "US",
      "postalCode": "33637-6716",
      "latitude": 28.028297,
      "longitude": -82.354789,
      "timeZone": "America/New_York",
      "vendorCodes": null
    },
    "totalDistance": { "value": 52.152305383969725, "unit": "miles" },
    "payout": { "value": 244.0709738102979, "unit": "USD" },
    "radius": 60
  },
  {
    "id": "0b47f1a6-c5fa-41b0-bcec-0dce9e4b3cf4",
    "deadhead": null,
    "trailerStatus": "Provided",
    "driverType": "Team",
    "totalDuration": 49620000,
    "firstPickupTime": "2022-06-13T18:01:00Z",
    "lastDeliveryTime": "2022-06-14T07:48:00Z",
    "equipmentType": "53' Container",
    "loadType": null,
    "unloadingType": "DROP",
    "stops": 2,
    "workType": "Block",
    "origin": {
      "label": "ABQ1",
      "stopCode": "ABQ1",
      "line1": "12945 Ladera Dr NW",
      "line2": null,
      "line3": null,
      "city": "ALBUQUERQUE",
      "state": "New Mexico",
      "country": "US",
      "postalCode": "87120",
      "latitude": 35.0818726,
      "longitude": -106.803516,
      "timeZone": "America/Denver",
      "vendorCodes": null
    },
    "destination": {
      "label": "DAL3",
      "stopCode": "DAL3",
      "line1": "1301 Chalk Hill Road",
      "line2": null,
      "line3": null,
      "city": "DALLAS",
      "state": "Texas",
      "country": "US",
      "postalCode": "75211",
      "latitude": 32.7555104,
      "longitude": -96.9031772,
      "timeZone": "America/Chicago",
      "vendorCodes": null
    },
    "totalDistance": { "value": 657.339876575875, "unit": "miles" },
    "payout": { "value": 1181.910376700389, "unit": "USD" },
    "radius": 56
  },
  {
    "id": "6911fca6-4b49-451b-bc86-0c5820458deb",
    "deadhead": "285.73",
    "trailerStatus": "Provided",
    "driverType": "Solo",
    "totalDuration": 70260000,
    "firstPickupTime": "2022-06-13T18:30:00Z",
    "lastDeliveryTime": "2022-06-14T14:01:00Z",
    "equipmentType": "26' Reefer",
    "loadType": null,
    "unloadingType": "DROP",
    "stops": 2,
    "workType": "One-way",
    "origin": {
      "label": "FTW1",
      "stopCode": "FTW1",
      "line1": "33333 Lyndon B Johnson Fwy",
      "line2": null,
      "line3": null,
      "city": "DALLAS",
      "state": "TX",
      "country": "US",
      "postalCode": "75241-7203",
      "latitude": 32.660427,
      "longitude": -96.734466,
      "timeZone": "America/Chicago",
      "vendorCodes": null
    },
    "destination": {
      "label": "IND9",
      "stopCode": "IND9",
      "line1": "1151 S GRAHAM RD",
      "line2": null,
      "line3": null,
      "city": "GREENWOOD",
      "state": "Indiana",
      "country": "US",
      "postalCode": "46143-7830",
      "latitude": 39.5999463,
      "longitude": -86.0574888,
      "timeZone": "America/New_York",
      "vendorCodes": null
    },
    "totalDistance": { "value": 914.0512837645337, "unit": "miles" },
    "payout": { "value": 1511.84056114811, "unit": "USD" },
    "radius": 27
  },
  {
    "id": "92d35a07-773a-4e3a-9789-68fcd6dbf409",
    "deadhead": null,
    "trailerStatus": "Required",
    "driverType": "Solo",
    "totalDuration": 124200000,
    "firstPickupTime": "2022-06-13T18:30:00Z",
    "lastDeliveryTime": "2022-06-15T05:00:00Z",
    "equipmentType": "53' Reefer",
    "loadType": null,
    "unloadingType": "LIVE",
    "stops": 2,
    "workType": "One-way",
    "origin": {
      "label": "LAS1",
      "stopCode": "LAS1",
      "line1": "12300 Bermuda Road",
      "line2": null,
      "line3": null,
      "city": "HENDERSON",
      "state": "Nevada",
      "country": "US",
      "postalCode": "89044",
      "latitude": 35.966571,
      "longitude": -115.152358,
      "timeZone": "America/Los_Angeles",
      "vendorCodes": null
    },
    "destination": {
      "label": "LIT1",
      "stopCode": "LIT1",
      "line1": "7001 Zeuber Road",
      "line2": null,
      "line3": null,
      "city": "LITTLE ROCK",
      "state": "Arkansas",
      "country": "US",
      "postalCode": "72206",
      "latitude": 34.694478,
      "longitude": -92.204747,
      "timeZone": "America/Chicago",
      "vendorCodes": null
    },
    "totalDistance": { "value": 1455.941727799883, "unit": "miles" },
    "payout": { "value": 3532.608417233915, "unit": "USD" },
    "radius": 41
  },
  {
    "id": "60b37e7f-1ec3-41af-9620-9289bdd87ab5",
    "deadhead": null,
    "trailerStatus": "Provided",
    "driverType": "Team",
    "totalDuration": 102660000,
    "firstPickupTime": "2022-06-13T18:43:00Z",
    "lastDeliveryTime": "2022-06-14T23:14:00Z",
    "equipmentType": "53' Trailer",
    "loadType": null,
    "unloadingType": "DROP",
    "stops": 2,
    "workType": "Block",
    "origin": {
      "label": "GYR3",
      "stopCode": "GYR3",
      "line1": "8181 W ROOSEVELT ST",
      "line2": null,
      "line3": null,
      "city": "PHOENIX",
      "state": "Arizona",
      "country": "US",
      "postalCode": "85043-2356",
      "latitude": 33.457706,
      "longitude": -112.233124,
      "timeZone": "America/Phoenix",
      "vendorCodes": null
    },
    "destination": {
      "label": "PDX9",
      "stopCode": "PDX9",
      "line1": "1250 NW Swigert Way",
      "line2": null,
      "line3": null,
      "city": "TROUTDALE",
      "state": "Oregon",
      "country": "US",
      "postalCode": "97060",
      "latitude": 45.554181,
      "longitude": -122.400337,
      "timeZone": "America/Los_Angeles",
      "vendorCodes": null
    },
    "totalDistance": { "value": 1343.712775982015, "unit": "miles" },
    "payout": { "value": 3008.59860870687, "unit": "USD" },
    "radius": 56
  },
  {
    "id": "fb2e149b-3208-43d8-b6f0-cfc460557604",
    "deadhead": null,
    "trailerStatus": "Provided",
    "driverType": "Solo",
    "totalDuration": 24120000,
    "firstPickupTime": "2022-06-13T18:45:00Z",
    "lastDeliveryTime": "2022-06-14T01:27:00Z",
    "equipmentType": "28' Trailer",
    "loadType": "LIVE",
    "unloadingType": null,
    "stops": 2,
    "workType": "Round-trips",
    "origin": {
      "label": "CMH4",
      "stopCode": "CMH4",
      "line1": "1550 W. Main Street",
      "line2": null,
      "line3": null,
      "city": "WEST JEFFERSON",
      "state": "Ohio",
      "country": "US",
      "postalCode": "43162-9747",
      "latitude": 39.9470797,
      "longitude": -83.3067792,
      "timeZone": "America/New_York",
      "vendorCodes": null
    },
    "destination": {
      "label": "CMH4",
      "stopCode": "CMH4",
      "line1": "1550 W. Main Street",
      "line2": null,
      "line3": null,
      "city": "WEST JEFFERSON",
      "state": "Ohio",
      "country": "US",
      "postalCode": "43162-9747",
      "latitude": 39.9470797,
      "longitude": -83.3067792,
      "timeZone": "America/New_York",
      "vendorCodes": null
    },
    "totalDistance": { "value": 232.95019782832514, "unit": "miles" },
    "payout": { "value": 556.5153649146775, "unit": "USD" },
    "radius": 100
  },
  {
    "id": "f648ba65-8039-486d-9a0b-27bd2040ac97",
    "deadhead": null,
    "trailerStatus": "Provided",
    "driverType": "Solo",
    "totalDuration": 57120000,
    "firstPickupTime": "2022-06-13T18:59:00Z",
    "lastDeliveryTime": "2022-06-14T10:51:00Z",
    "equipmentType": "28' Trailer",
    "loadType": null,
    "unloadingType": "DROP",
    "stops": 2,
    "workType": "Round-trips",
    "origin": {
      "label": "SMF5",
      "stopCode": "SMF5",
      "line1": "300 Crocker Drive",
      "line2": null,
      "line3": null,
      "city": "VACAVILLE",
      "state": "CALIFORNIA",
      "country": "US",
      "postalCode": "95688",
      "latitude": 38.3993327,
      "longitude": -121.950673,
      "timeZone": "America/Los_Angeles",
      "vendorCodes": null
    },
    "destination": {
      "label": "SMF5",
      "stopCode": "SMF5",
      "line1": "300 Crocker Drive",
      "line2": null,
      "line3": null,
      "city": "VACAVILLE",
      "state": "CALIFORNIA",
      "country": "US",
      "postalCode": "95688",
      "latitude": 38.3993327,
      "longitude": -121.950673,
      "timeZone": "America/Los_Angeles",
      "vendorCodes": null
    },
    "totalDistance": { "value": 622.8668217745087, "unit": "miles" },
    "payout": { "value": 1240.793272515391, "unit": "USD" },
    "radius": 39
  },
  {
    "id": "f5510f6d-139e-49c6-9ebd-15becf79d083",
    "deadhead": null,
    "trailerStatus": "Required",
    "driverType": "Solo",
    "totalDuration": 57120000,
    "firstPickupTime": "2022-06-13T18:59:00Z",
    "lastDeliveryTime": "2022-06-14T10:51:00Z",
    "equipmentType": "53' Reefer",
    "loadType": null,
    "unloadingType": "LIVE",
    "stops": 2,
    "workType": "Block",
    "origin": {
      "label": "SMF5",
      "stopCode": "SMF5",
      "line1": "300 Crocker Drive",
      "line2": null,
      "line3": null,
      "city": "VACAVILLE",
      "state": "CALIFORNIA",
      "country": "US",
      "postalCode": "95688",
      "latitude": 38.3993327,
      "longitude": -121.950673,
      "timeZone": "America/Los_Angeles",
      "vendorCodes": null
    },
    "destination": {
      "label": "SMF5",
      "stopCode": "SMF5",
      "line1": "300 Crocker Drive",
      "line2": null,
      "line3": null,
      "city": "VACAVILLE",
      "state": "CALIFORNIA",
      "country": "US",
      "postalCode": "95688",
      "latitude": 38.3993327,
      "longitude": -121.950673,
      "timeZone": "America/Los_Angeles",
      "vendorCodes": null
    },
    "totalDistance": { "value": 622.8668217745087, "unit": "miles" },
    "payout": { "value": 1240.793272515391, "unit": "USD" },
    "radius": 21
  },
  {
    "id": "ee73a0b2-e8d8-4bec-bf9a-6d7f076913c8",
    "deadhead": null,
    "trailerStatus": "Provided",
    "driverType": "Solo",
    "totalDuration": 57120000,
    "firstPickupTime": "2022-06-13T18:59:00Z",
    "lastDeliveryTime": "2022-06-14T10:51:00Z",
    "equipmentType": "53' Trailer",
    "loadType": null,
    "unloadingType": "DROP",
    "stops": 2,
    "workType": "One-way",
    "origin": {
      "label": "SMF5",
      "stopCode": "SMF5",
      "line1": "300 Crocker Drive",
      "line2": null,
      "line3": null,
      "city": "VACAVILLE",
      "state": "CALIFORNIA",
      "country": "US",
      "postalCode": "95688",
      "latitude": 38.3993327,
      "longitude": -121.950673,
      "timeZone": "America/Los_Angeles",
      "vendorCodes": null
    },
    "destination": {
      "label": "SMF5",
      "stopCode": "SMF5",
      "line1": "300 Crocker Drive",
      "line2": null,
      "line3": null,
      "city": "VACAVILLE",
      "state": "CALIFORNIA",
      "country": "US",
      "postalCode": "95688",
      "latitude": 38.3993327,
      "longitude": -121.950673,
      "timeZone": "America/Los_Angeles",
      "vendorCodes": null
    },
    "totalDistance": { "value": 622.8668217745087, "unit": "miles" },
    "payout": { "value": 1240.793272515391, "unit": "USD" },
    "radius": 20
  },
  {
    "id": "7028b0fe-6ea7-49c0-bb76-0ef5395fd400",
    "deadhead": null,
    "trailerStatus": "Provided",
    "driverType": "Solo",
    "totalDuration": 57120000,
    "firstPickupTime": "2022-06-13T18:59:00Z",
    "lastDeliveryTime": "2022-06-14T10:51:00Z",
    "equipmentType": "45' HC Container",
    "loadType": null,
    "unloadingType": "LIVE",
    "stops": 2,
    "workType": "Block",
    "origin": {
      "label": "SMF5",
      "stopCode": "SMF5",
      "line1": "300 Crocker Drive",
      "line2": null,
      "line3": null,
      "city": "VACAVILLE",
      "state": "CALIFORNIA",
      "country": "US",
      "postalCode": "95688",
      "latitude": 38.3993327,
      "longitude": -121.950673,
      "timeZone": "America/Los_Angeles",
      "vendorCodes": null
    },
    "destination": {
      "label": "SMF5",
      "stopCode": "SMF5",
      "line1": "300 Crocker Drive",
      "line2": null,
      "line3": null,
      "city": "VACAVILLE",
      "state": "CALIFORNIA",
      "country": "US",
      "postalCode": "95688",
      "latitude": 38.3993327,
      "longitude": -121.950673,
      "timeZone": "America/Los_Angeles",
      "vendorCodes": null
    },
    "totalDistance": { "value": 622.8668217745087, "unit": "miles" },
    "payout": { "value": 1240.793272515391, "unit": "USD" },
    "radius": 52
  },
  {
    "id": "848343ba-559d-4e09-afef-542133b0a594",
    "deadhead": null,
    "trailerStatus": "Required",
    "driverType": "Solo",
    "totalDuration": 57120000,
    "firstPickupTime": "2022-06-13T18:59:00Z",
    "lastDeliveryTime": "2022-06-14T10:51:00Z",
    "equipmentType": "20' Container",
    "loadType": null,
    "unloadingType": "DROP",
    "stops": 2,
    "workType": "Round-trips",
    "origin": {
      "label": "SMF5",
      "stopCode": "SMF5",
      "line1": "300 Crocker Drive",
      "line2": null,
      "line3": null,
      "city": "VACAVILLE",
      "state": "CALIFORNIA",
      "country": "US",
      "postalCode": "95688",
      "latitude": 38.3993327,
      "longitude": -121.950673,
      "timeZone": "America/Los_Angeles",
      "vendorCodes": null
    },
    "destination": {
      "label": "SMF5",
      "stopCode": "SMF5",
      "line1": "300 Crocker Drive",
      "line2": null,
      "line3": null,
      "city": "VACAVILLE",
      "state": "CALIFORNIA",
      "country": "US",
      "postalCode": "95688",
      "latitude": 38.3993327,
      "longitude": -121.950673,
      "timeZone": "America/Los_Angeles",
      "vendorCodes": null
    },
    "totalDistance": { "value": 622.8668217745087, "unit": "miles" },
    "payout": { "value": 1216.395611295391, "unit": "USD" },
    "radius": 91
  },
  {
    "id": "13ca0bfc-b92f-4ac5-a503-5c9a17544c75",
    "deadhead": "201.64",
    "trailerStatus": "Provided",
    "driverType": "Solo",
    "totalDuration": 57120000,
    "firstPickupTime": "2022-06-13T18:59:00Z",
    "lastDeliveryTime": "2022-06-14T10:51:00Z",
    "equipmentType": "28' Trailer",
    "loadType": null,
    "unloadingType": "LIVE",
    "stops": 2,
    "workType": "Block",
    "origin": {
      "label": "SMF5",
      "stopCode": "SMF5",
      "line1": "300 Crocker Drive",
      "line2": null,
      "line3": null,
      "city": "VACAVILLE",
      "state": "CALIFORNIA",
      "country": "US",
      "postalCode": "95688",
      "latitude": 38.3993327,
      "longitude": -121.950673,
      "timeZone": "America/Los_Angeles",
      "vendorCodes": null
    },
    "destination": {
      "label": "SMF5",
      "stopCode": "SMF5",
      "line1": "300 Crocker Drive",
      "line2": null,
      "line3": null,
      "city": "VACAVILLE",
      "state": "CALIFORNIA",
      "country": "US",
      "postalCode": "95688",
      "latitude": 38.3993327,
      "longitude": -121.950673,
      "timeZone": "America/Los_Angeles",
      "vendorCodes": null
    },
    "totalDistance": { "value": 622.8668217745087, "unit": "miles" },
    "payout": { "value": 1240.793272515391, "unit": "USD" },
    "radius": 83
  },
  {
    "id": "618f5156-bffa-480a-9ce4-45ada4b5bb51",
    "deadhead": "52.62",
    "trailerStatus": "Provided",
    "driverType": "Solo",
    "totalDuration": 57120000,
    "firstPickupTime": "2022-06-13T18:59:00Z",
    "lastDeliveryTime": "2022-06-14T10:51:00Z",
    "equipmentType": "53' Trailer",
    "loadType": "PRELOADED",
    "unloadingType": null,
    "stops": 2,
    "workType": "Round-trips",
    "origin": {
      "label": "SMF5",
      "stopCode": "SMF5",
      "line1": "300 Crocker Drive",
      "line2": null,
      "line3": null,
      "city": "VACAVILLE",
      "state": "CALIFORNIA",
      "country": "US",
      "postalCode": "95688",
      "latitude": 38.3993327,
      "longitude": -121.950673,
      "timeZone": "America/Los_Angeles",
      "vendorCodes": null
    },
    "destination": {
      "label": "SMF5",
      "stopCode": "SMF5",
      "line1": "300 Crocker Drive",
      "line2": null,
      "line3": null,
      "city": "VACAVILLE",
      "state": "CALIFORNIA",
      "country": "US",
      "postalCode": "95688",
      "latitude": 38.3993327,
      "longitude": -121.950673,
      "timeZone": "America/Los_Angeles",
      "vendorCodes": null
    },
    "totalDistance": { "value": 622.8668217745087, "unit": "miles" },
    "payout": { "value": 1216.395611295391, "unit": "USD" },
    "radius": 44
  },
  {
    "id": "5197dcd8-fc13-408f-aecd-9f1e7b952ef2",
    "deadhead": "105.55",
    "trailerStatus": "Required",
    "driverType": "Solo",
    "totalDuration": 57120000,
    "firstPickupTime": "2022-06-13T18:59:00Z",
    "lastDeliveryTime": "2022-06-14T10:51:00Z",
    "equipmentType": "53' Reefer",
    "loadType": "LIVE",
    "unloadingType": null,
    "stops": 2,
    "workType": "Round-trips",
    "origin": {
      "label": "SMF5",
      "stopCode": "SMF5",
      "line1": "300 Crocker Drive",
      "line2": null,
      "line3": null,
      "city": "VACAVILLE",
      "state": "CALIFORNIA",
      "country": "US",
      "postalCode": "95688",
      "latitude": 38.3993327,
      "longitude": -121.950673,
      "timeZone": "America/Los_Angeles",
      "vendorCodes": null
    },
    "destination": {
      "label": "SMF5",
      "stopCode": "SMF5",
      "line1": "300 Crocker Drive",
      "line2": null,
      "line3": null,
      "city": "VACAVILLE",
      "state": "CALIFORNIA",
      "country": "US",
      "postalCode": "95688",
      "latitude": 38.3993327,
      "longitude": -121.950673,
      "timeZone": "America/Los_Angeles",
      "vendorCodes": null
    },
    "totalDistance": { "value": 622.8668217745087, "unit": "miles" },
    "payout": { "value": 1240.793272515391, "unit": "USD" },
    "radius": 38
  },
  {
    "id": "70f0646e-8cf9-4ada-b963-32cdcde38f85",
    "deadhead": null,
    "trailerStatus": "Provided",
    "driverType": "Solo",
    "totalDuration": 12660000,
    "firstPickupTime": "2022-06-13T19:00:00Z",
    "lastDeliveryTime": "2022-06-13T22:31:00Z",
    "equipmentType": "20' Container",
    "loadType": "PRELOADED",
    "unloadingType": null,
    "stops": 2,
    "workType": "One-way",
    "origin": {
      "label": "MKC6",
      "stopCode": "MKC6",
      "line1": "6925 Riverview Avenue",
      "line2": null,
      "line3": null,
      "city": "KANSAS CITY",
      "state": "KANSAS",
      "country": "US",
      "postalCode": "66102",
      "latitude": 39.097708,
      "longitude": -94.738243,
      "timeZone": "America/Chicago",
      "vendorCodes": null
    },
    "destination": {
      "label": "BNSF-LOGPARKAN-MC",
      "stopCode": "BNSF-LOGPARKAN-MC",
      "line1": "32880 W 191st",
      "line2": null,
      "line3": null,
      "city": "EDGERTON",
      "state": "KS",
      "country": "US",
      "postalCode": "66030",
      "latitude": 38.787702,
      "longitude": -94.957005,
      "timeZone": "America/Chicago",
      "vendorCodes": null
    },
    "totalDistance": { "value": 29.993587733737268, "unit": "miles" },
    "payout": { "value": 221.8953110456282, "unit": "USD" },
    "radius": 49
  },
  {
    "id": "f38dce0a-20e4-45a6-895c-fe171317635a",
    "deadhead": "44.64",
    "trailerStatus": "Required",
    "driverType": "Team",
    "totalDuration": 41940000,
    "firstPickupTime": "2022-06-13T19:01:00Z",
    "lastDeliveryTime": "2022-06-14T06:40:00Z",
    "equipmentType": "53' Container",
    "loadType": null,
    "unloadingType": "DROP",
    "stops": 2,
    "workType": "Round-trips",
    "origin": {
      "label": "SAN5",
      "stopCode": "SAN5",
      "line1": "7144 OTAY MESA RD",
      "line2": null,
      "line3": null,
      "city": "SAN DIEGO",
      "state": "California",
      "country": "US",
      "postalCode": "92154-7719",
      "latitude": 32.567594,
      "longitude": -116.925476,
      "timeZone": "America/Los_Angeles",
      "vendorCodes": null
    },
    "destination": {
      "label": "SMF1",
      "stopCode": "SMF1",
      "line1": "4900 W Elkhorn Blvd",
      "line2": null,
      "line3": null,
      "city": "SACRAMENTO",
      "state": "CALIFORNIA",
      "country": "US",
      "postalCode": "95835",
      "latitude": 38.682473,
      "longitude": -121.575555,
      "timeZone": "America/Los_Angeles",
      "vendorCodes": null
    },
    "totalDistance": { "value": 530.6951055130032, "unit": "miles" },
    "payout": { "value": 1483.292602024492, "unit": "USD" },
    "radius": 22
  }
]
